// 20240227104812
// http://srv-lx:3001/tracknav/api/webclient/v1/trailers

[
  {
    "groupId": 1,
    "id": 400,
    "name": "KR 001-JTR",
    "code": "376",
    "vehicleCode": "",
    "status": 0,
    "note": "KRONE MEGA 15.01.2018  VARIUS \r\n\r\nBREZ BOKSOV",
    "time": "16.10.2023 05:08",
    "location": "Mittlerer Weg 2 / 76661 - Philippsburg / D (200 m from ) ",
    "locationCountry": "D",
    "locationPost": "76661",
    "lon": 8.470859,
    "lat": 49.223476
  },
  {
    "groupId": 1,
    "id": 392,
    "name": "KR 002-JTR",
    "code": "368",
    "vehicleCode": "KR JTR-116",
    "status": 1,
    "note": "KRONE MEGA VARIUS 2017 z paletenanchlagleiste\r\nDatum registracije: 10.11.2017",
    "time": "27.02.2024 10:45",
    "location": "Tauern-Autobahn  / 9722 - Weißenstein / A",
    "locationCountry": "A",
    "locationPost": "9722",
    "lon": 13.732275,
    "lat": 46.657852
  },
  {
    "groupId": 1,
    "id": 378,
    "name": "KR 003-JTR",
    "code": "351",
    "vehicleCode": "KR JTR-017",
    "status": 1,
    "note": "KRNOE MEGA VARIUS 2017 z paletenanchlagleiste \r\nDatum registracije: 10.11.2017",
    "time": "27.02.2024 10:00",
    "location": "Stahlstraße 73 / 4030 - Linz / A",
    "locationCountry": "A",
    "locationPost": "4030",
    "lon": 14.330601,
    "lat": 48.261932
  },
  {
    "groupId": 1,
    "id": 402,
    "name": "KR 004-JTR",
    "code": "378",
    "vehicleCode": "KR JTR-003",
    "status": 1,
    "note": "KRONE MEGA 2017",
    "time": "27.02.2024 10:13",
    "location": "Waldweg  / 4650 - Edt bei Lambach / A (300 m from ) ",
    "locationCountry": "A",
    "locationPost": "4650",
    "lon": 13.90455,
    "lat": 48.097984
  },
  {
    "groupId": 1,
    "id": 3988,
    "name": "KR 005-JTR",
    "code": "222324",
    "vehicleCode": "",
    "status": 0,
    "note": "KRONE VARIUS 11.11.2022",
    "time": "23.02.2024 08:20",
    "location": "ŠENÈUR - JURÈIÈ & Co",
    "locationCountry": "SLO",
    "locationPost": "",
    "lon": 14.410429,
    "lat": 46.234379
  },
  {
    "groupId": 1,
    "id": 3996,
    "name": "KR 006-JTR",
    "code": "222332",
    "vehicleCode": "",
    "status": 0,
    "note": "KRONE VARIUS 11.11.2022\r\n",
    "time": "27.02.2024 09:42",
    "location": "ŠENÈUR - JURÈIÈ & Co",
    "locationCountry": "SLO",
    "locationPost": "",
    "lon": 14.410172,
    "lat": 46.234379
  },
  {
    "groupId": 1,
    "id": 3972,
    "name": "KR 007-JTR",
    "code": "222308",
    "vehicleCode": "KR JTR-094",
    "status": 1,
    "note": "KRONE VARIUS 11.11.2022",
    "time": "27.02.2024 10:47",
    "location": "La Provençale  / 06200 - Nice / F",
    "locationCountry": "F",
    "locationPost": "06200",
    "lon": 7.189485,
    "lat": 43.693134
  },
  {
    "groupId": 1,
    "id": 3992,
    "name": "KR 008-JTR",
    "code": "222328",
    "vehicleCode": "KR JTR-080",
    "status": 1,
    "note": "KRONE VARIUS 11.11.2022",
    "time": "27.02.2024 10:45",
    "location": "H4  / 5272 - Vipava / Poreèe / SLO",
    "locationCountry": "SLO",
    "locationPost": "5272",
    "lon": 13.967812,
    "lat": 45.813091
  },
  {
    "groupId": 1,
    "id": 4004,
    "name": "KR 009-JTR",
    "code": "227851",
    "vehicleCode": "KR JTR-069",
    "status": 1,
    "note": "KRONE VARIOS\r\n2022",
    "time": "27.02.2024 10:34",
    "location": "54516 - Wittlich / D",
    "locationCountry": "D",
    "locationPost": "54516",
    "lon": 6.910515,
    "lat": 49.98455
  },
  {
    "groupId": 1,
    "id": 393,
    "name": "KR 012-JTR",
    "code": "369",
    "vehicleCode": "",
    "status": 0,
    "note": "KRNOE MEGA VARIUS 2023, 13.11.2023",
    "time": "23.02.2024 15:04",
    "location": "ŠENÈUR - JURÈIÈ & Co (100 m S.E. from ) ",
    "locationCountry": "SLO",
    "locationPost": "",
    "lon": 14.411716,
    "lat": 46.233906
  },
  {
    "groupId": 1,
    "id": 3973,
    "name": "KR 013-JTR",
    "code": "222309",
    "vehicleCode": "KR JTR-018",
    "status": 1,
    "note": "KRONE VARIUS 25.11.2022\r\nIMA BOKSE",
    "time": "27.02.2024 10:47",
    "location": "Mittlerer Weg  / 76661 - Philippsburg / D",
    "locationCountry": "D",
    "locationPost": "76661",
    "lon": 8.472404,
    "lat": 49.226353
  },
  {
    "groupId": 1,
    "id": 3975,
    "name": "KR 014-JTR",
    "code": "222311",
    "vehicleCode": "",
    "status": 0,
    "note": "KRONE VARIUS 25.11.2022",
    "time": "15.02.2024 10:40",
    "location": "ŠENÈUR - JURÈIÈ & Co",
    "locationCountry": "SLO",
    "locationPost": "",
    "lon": 14.410343,
    "lat": 46.234333
  },
  {
    "groupId": 1,
    "id": 3985,
    "name": "KR 016-JTR",
    "code": "222321",
    "vehicleCode": "",
    "status": 0,
    "note": "KRONE VARIUS 25.11.2022\r\n",
    "time": "20.01.2024 03:19",
    "location": "ŠENÈUR - JURÈIÈ & Co (100 m W. from ) ",
    "locationCountry": "SLO",
    "locationPost": "",
    "lon": 14.409227,
    "lat": 46.234806
  },
  {
    "groupId": 1,
    "id": 397,
    "name": "KR 017-JTR",
    "code": "373",
    "vehicleCode": "KR JTR-111",
    "status": 1,
    "note": "KRNOE MEGA VARIUS 2017 z paletenanchlagleiste\r\nDatum registracije: 17.11.2017",
    "time": "27.02.2024 10:46",
    "location": "A3/E43  / 97234 - Reichenberg / D",
    "locationCountry": "D",
    "locationPost": "97234",
    "lon": 9.885622,
    "lat": 49.748241
  },
  {
    "groupId": 1,
    "id": 394,
    "name": "KR 018-JTR",
    "code": "370",
    "vehicleCode": "",
    "status": 0,
    "note": "KRNOE MEGA VARIUS 2017 z paletenanchlagleiste",
    "time": "26.02.2024 10:00",
    "location": "Mittlerer Weg 2 / 76661 - Philippsburg / D (200 m from ) ",
    "locationCountry": "D",
    "locationPost": "76661",
    "lon": 8.470773,
    "lat": 49.223434
  },
  {
    "groupId": 1,
    "id": 398,
    "name": "KR 019-JTR",
    "code": "374",
    "vehicleCode": "KR JTR-085",
    "status": 1,
    "note": "KRNOE MEGA VARIUS 2023, 13.11.2023",
    "time": "27.02.2024 10:45",
    "location": "A8/E52/E60  / 83236 - Übersee / Chiemseemoos / D",
    "locationCountry": "D",
    "locationPost": "83236",
    "lon": 12.42236,
    "lat": 47.833862
  },
  {
    "groupId": 1,
    "id": 449,
    "name": "KR 020-JTR",
    "code": "423",
    "vehicleCode": "",
    "status": 0,
    "note": "KRONE \r\nCERADA",
    "time": "26.02.2024 13:07",
    "location": "4000 - Kranj / Orehek / SLO",
    "locationCountry": "SLO",
    "locationPost": "4000",
    "lon": 14.349013,
    "lat": 46.224979
  },
  {
    "groupId": 1,
    "id": 3931,
    "name": "KR 021-JTR",
    "code": "222267",
    "vehicleCode": "KR JTR-113",
    "status": 1,
    "note": "KRONE MEGALINER 17.01.2022",
    "time": "27.02.2024 10:36",
    "location": "Hauptstraße  / 8792 - Sankt Peter-Freienstein / A",
    "locationCountry": "A",
    "locationPost": "8792",
    "lon": 15.041674,
    "lat": 47.392361
  },
  {
    "groupId": 1,
    "id": 3941,
    "name": "KR 022-JTR",
    "code": "222277",
    "vehicleCode": "",
    "status": 0,
    "note": "KRONE VARIUS 17.01.2022",
    "time": "22.02.2024 16:47",
    "location": "4000 - Kranj / Orehek / SLO",
    "locationCountry": "SLO",
    "locationPost": "4000",
    "lon": 14.349314,
    "lat": 46.225109
  },
  {
    "groupId": 1,
    "id": 3932,
    "name": "KR 023-JTR",
    "code": "222268",
    "vehicleCode": "",
    "status": 0,
    "note": "Krone Mega - varius 17.01.2022\r\n",
    "time": "23.02.2024 08:41",
    "location": "210  / 4000 - Kranj / Orehek / SLO",
    "locationCountry": "SLO",
    "locationPost": "4000",
    "lon": 14.350601,
    "lat": 46.225193
  },
  {
    "groupId": 1,
    "id": 407,
    "name": "KR 025-JTR",
    "code": "383",
    "vehicleCode": "",
    "status": 0,
    "note": "KRONE MEGA 2018",
    "time": "23.02.2024 06:54",
    "location": "Mittlerer Weg 2 / 76661 - Philippsburg / D",
    "locationCountry": "D",
    "locationPost": "76661",
    "lon": 8.471459,
    "lat": 49.222404
  },
  {
    "groupId": 1,
    "id": 412,
    "name": "KR 026-JTR",
    "code": "388",
    "vehicleCode": "",
    "status": 0,
    "note": "KRONE MEGA 2018",
    "time": "13.01.2024 16:48",
    "location": "4207 - Cerklje na Gorenjskem / Praprotna Polica / SLO",
    "locationCountry": "SLO",
    "locationPost": "4207",
    "lon": 14.462704,
    "lat": 46.247166
  },
  {
    "groupId": 1,
    "id": 409,
    "name": "KR 028-JTR",
    "code": "385",
    "vehicleCode": "KR JTR-050",
    "status": 1,
    "note": "KRONE MEGA 2018",
    "time": "27.02.2024 10:38",
    "location": "4209 - Engerwitzdorf / Engerwitzberg / A",
    "locationCountry": "A",
    "locationPost": "4209",
    "lon": 14.454035,
    "lat": 48.347939
  },
  {
    "groupId": 1,
    "id": 3842,
    "name": "KR 029-JTR",
    "code": "2280",
    "vehicleCode": "",
    "status": 0,
    "note": "Krone Varius 20.01.2018",
    "time": "21.02.2024 07:09",
    "location": "Mittlerer Weg 2 / 76661 - Philippsburg / D",
    "locationCountry": "D",
    "locationPost": "76661",
    "lon": 8.471545,
    "lat": 49.222359
  },
  {
    "groupId": 1,
    "id": 413,
    "name": "KR 030-JTR",
    "code": "389",
    "vehicleCode": "KR JTR-054",
    "status": 1,
    "note": "KRONE MEGA 2018",
    "time": "27.02.2024 10:47",
    "location": "A12/E30  / 15517 - Fürstenwalde/Spree / Fürstenwalde Süd / D",
    "locationCountry": "D",
    "locationPost": "15517",
    "lon": 14.072145,
    "lat": 52.334549
  },
  {
    "groupId": 1,
    "id": 411,
    "name": "KR 031-JTR",
    "code": "387",
    "vehicleCode": "KR JTR-078",
    "status": 1,
    "note": "KRONE MEGA 2018",
    "time": "27.02.2024 10:47",
    "location": "A2/E61  / 4274 - Žirovnica / SLO",
    "locationCountry": "SLO",
    "locationPost": "4274",
    "lon": 14.131931,
    "lat": 46.3988
  },
  {
    "groupId": 1,
    "id": 4002,
    "name": "KR 032-JTR",
    "code": "855613",
    "vehicleCode": "",
    "status": 0,
    "note": "KRONE VARIOS\r\n2018",
    "time": "22.02.2024 18:11",
    "location": "ŠENÈUR - JURÈIÈ & Co (100 m W. from ) ",
    "locationCountry": "SLO",
    "locationPost": "",
    "lon": 14.409914,
    "lat": 46.234333
  },
  {
    "groupId": 1,
    "id": 437,
    "name": "KR 033-JTR",
    "code": "412",
    "vehicleCode": "",
    "status": 0,
    "note": "KRONE, cerada mega\r\nLetnik 2018",
    "time": "26.02.2024 07:43",
    "location": "210  / 4000 - Kranj / Orehek / SLO",
    "locationCountry": "SLO",
    "locationPost": "4000",
    "lon": 14.350558,
    "lat": 46.225193
  },
  {
    "groupId": 1,
    "id": 436,
    "name": "KR 034-JTR",
    "code": "411",
    "vehicleCode": "",
    "status": 0,
    "note": "KRONE, 2018, cerada mega\r\nDatum prve registracije: 9.2.2018",
    "time": "01.12.2023 11:30",
    "location": "ŠENÈUR - JURÈIÈ & Co (100 m S.E. from ) ",
    "locationCountry": "SLO",
    "locationPost": "",
    "lon": 14.411588,
    "lat": 46.234249
  },
  {
    "groupId": 1,
    "id": 415,
    "name": "KR 035-JTR",
    "code": "391",
    "vehicleCode": "KR JTR-019",
    "status": 1,
    "note": "KRNOE MEGA VARIUS 2018 z paletenanchlagleiste\r\nDatum registracije: 16.01.2018",
    "time": "27.02.2024 10:47",
    "location": "67063 - Ludwigshafen am Rhein / Friesenheim / D",
    "locationCountry": "D",
    "locationPost": "67063",
    "lon": 8.4197,
    "lat": 49.509998
  },
  {
    "groupId": 1,
    "id": 459,
    "name": "KR 036-JTR",
    "code": "392",
    "vehicleCode": "KR JTR-051",
    "status": 1,
    "note": "KRNOE MEGA VARIUS 2018 z paletenanchlagleiste\r\nDatum registracije: 16.01.2018",
    "time": "27.02.2024 10:47",
    "location": "A8/E52  / 89340 - Leipheim / Riedheim / D",
    "locationCountry": "D",
    "locationPost": "89340",
    "lon": 10.189141,
    "lat": 48.457512
  },
  {
    "groupId": 1,
    "id": 417,
    "name": "KR 037-JTR",
    "code": "393",
    "vehicleCode": "",
    "status": 0,
    "note": "KRNOE MEGA VARIUS 2018 z paletenanchlagleiste\r\nDatum registracije: 16.01.2018",
    "time": "26.02.2024 17:58",
    "location": "ŠENÈUR - JURÈIÈ & Co (100 m E. from ) ",
    "locationCountry": "SLO",
    "locationPost": "",
    "lon": 14.411974,
    "lat": 46.234249
  },
  {
    "groupId": 1,
    "id": 418,
    "name": "KR 038-JTR",
    "code": "394",
    "vehicleCode": "",
    "status": 0,
    "note": "KRNOE MEGA VARIUS 2018 z paletenanchlagleiste\r\nDatum registracije: 08.02.2018",
    "time": "09.11.2023 16:21",
    "location": "TUNEL KARAVANKE ( (1,9 km N. from ) ) ",
    "locationCountry": "A",
    "locationPost": "",
    "lon": 14.030257,
    "lat": 46.532017
  },
  {
    "groupId": 1,
    "id": 218,
    "name": "KR 039-JTR",
    "code": "193",
    "vehicleCode": "KR JTR-052",
    "status": 1,
    "note": "KRNOE MEGA VARIUS 2018 z paletenanchlagleiste\r\nDatum registracije: 16.01.2018",
    "time": "27.02.2024 10:00",
    "location": "71229 - Leonberg / Mahdental / D",
    "locationCountry": "D",
    "locationPost": "71229",
    "lon": 9.035322,
    "lat": 48.740902
  },
  {
    "groupId": 1,
    "id": 421,
    "name": "KR 041-JTR",
    "code": "397",
    "vehicleCode": "",
    "status": 0,
    "note": "KRNOE MEGA VARIUS 2018 z paletenanchlagleiste\r\nDatum registracije: 14.02.2018",
    "time": "06.02.2023 07:29",
    "location": "Huttenheimer Landstraße 2 / 76661 - Philippsburg / D (200 m from ) ",
    "locationCountry": "D",
    "locationPost": "76661",
    "lon": 8.470258,
    "lat": 49.224422
  },
  {
    "groupId": 1,
    "id": 422,
    "name": "KR 042-JTR",
    "code": "398",
    "vehicleCode": "",
    "status": 0,
    "note": "KRNOE MEGA VARIUS 2018 z paletenanchlagleiste\r\nDatum registracije: 16.02.2018",
    "time": "22.02.2024 15:53",
    "location": "ŠENÈUR - JURÈIÈ & Co",
    "locationCountry": "SLO",
    "locationPost": "",
    "lon": 14.410858,
    "lat": 46.234291
  },
  {
    "groupId": 1,
    "id": 423,
    "name": "KR 043-JTR",
    "code": "399",
    "vehicleCode": "",
    "status": 0,
    "note": "KRNOE MEGA VARIUS 2018 z paletenanchlagleiste\r\nDatum registracije: 16.02.2018",
    "time": "27.02.2024 07:47",
    "location": "Mittlerer Weg 2 / 76661 - Philippsburg / D",
    "locationCountry": "D",
    "locationPost": "76661",
    "lon": 8.471459,
    "lat": 49.222618
  },
  {
    "groupId": 1,
    "id": 424,
    "name": "KR 044-JTR",
    "code": "400",
    "vehicleCode": "",
    "status": 0,
    "note": "KRNOE MEGA VARIUS 2018 z paletenanchlagleiste\r\nDatum registracije: 19.02.2018",
    "time": "21.11.2023 18:47",
    "location": "Mittlerer Weg 2 / 76661 - Philippsburg / D",
    "locationCountry": "D",
    "locationPost": "76661",
    "lon": 8.471416,
    "lat": 49.22266
  },
  {
    "groupId": 1,
    "id": 426,
    "name": "KR 045-JTR",
    "code": "402",
    "vehicleCode": "KR JTR-023",
    "status": 1,
    "note": "KRNOE MEGA VARIUS 2018 z paletenanchlagleiste\r\nDatum registracije: 23.02.2018",
    "time": "27.02.2024 10:45",
    "location": "A8/E52  / 89347 - Bubesheim / D",
    "locationCountry": "D",
    "locationPost": "89347",
    "lon": 10.224249,
    "lat": 48.430687
  },
  {
    "groupId": 1,
    "id": 425,
    "name": "KR 046-JTR",
    "code": "0",
    "vehicleCode": "",
    "status": 0,
    "note": "KRNOE MEGA VARIUS 2018 z paletenanchlagleiste\r\nDatum registracije: 26.02.2018",
    "time": "10.02.2024 11:00",
    "location": "ŠENÈUR - JURÈIÈ & Co (100 m W. from ) ",
    "locationCountry": "SLO",
    "locationPost": "",
    "lon": 14.409442,
    "lat": 46.234676
  },
  {
    "groupId": 1,
    "id": 427,
    "name": "KR 047-JTR",
    "code": "403",
    "vehicleCode": "KR JTR-029",
    "status": 1,
    "note": "KRNOE MEGA VARIUS 2018 z paletenanchlagleiste\r\nDatum registracije: 03.03.2018",
    "time": "27.02.2024 10:47",
    "location": "A81/E41  / 71229 - Leonberg / D",
    "locationCountry": "D",
    "locationPost": "71229",
    "lon": 9.037253,
    "lat": 48.803219
  },
  {
    "groupId": 1,
    "id": 4042,
    "name": "KR 048-JTR",
    "code": "2501242",
    "vehicleCode": "",
    "status": 0,
    "note": "KRONE MEGA VARIUS 11.01.2024 Š.Š. 43347",
    "time": "23.02.2024 12:50",
    "location": "4000 - Kranj / Orehek / SLO",
    "locationCountry": "SLO",
    "locationPost": "4000",
    "lon": 14.348885,
    "lat": 46.224979
  },
  {
    "groupId": 1,
    "id": 3989,
    "name": "KR 049-JTR",
    "code": "222325",
    "vehicleCode": "",
    "status": 0,
    "note": "KRONE VARIUS 05.12.2022",
    "time": "26.02.2024 18:03",
    "location": "ŠENÈUR - JURÈIÈ & Co",
    "locationCountry": "SLO",
    "locationPost": "",
    "lon": 14.410858,
    "lat": 46.234379
  },
  {
    "groupId": 1,
    "id": 4041,
    "name": "KR 050-JTR",
    "code": "2501241",
    "vehicleCode": "KR JTR-060",
    "status": 1,
    "note": "KRONE 2023, VARIOS, BREZ PALET BOKSA",
    "time": "26.02.2024 07:00",
    "location": "Industriestraße 28 / 63517 - Niederrodenbach / D (100 m from ) ",
    "locationCountry": "D",
    "locationPost": "63517",
    "lon": 9.005579,
    "lat": 50.146008
  },
  {
    "groupId": 1,
    "id": 430,
    "name": "KR 051-JTR",
    "code": "406",
    "vehicleCode": "",
    "status": 0,
    "note": "SCHMITZ, HLADILNIK, 2018",
    "time": "23.11.2023 15:06",
    "location": "ŠENÈUR - JURÈIÈ & Co (100 m S.E. from ) ",
    "locationCountry": "SLO",
    "locationPost": "",
    "lon": 14.411159,
    "lat": 46.234333
  },
  {
    "groupId": 1,
    "id": 3984,
    "name": "KR 052-JTR",
    "code": "222320",
    "vehicleCode": "",
    "status": 0,
    "note": "KRONE VARIUS 25.11.2022",
    "time": "29.01.2024 09:45",
    "location": "ŠENÈUR - JURÈIÈ & Co (100 m W. from ) ",
    "locationCountry": "SLO",
    "locationPost": "",
    "lon": 14.409571,
    "lat": 46.234634
  },
  {
    "groupId": 1,
    "id": 3997,
    "name": "KR 053-JTR",
    "code": "222333",
    "vehicleCode": "",
    "status": 0,
    "note": "KRONE VARIUS 25.11.2023\r\n",
    "time": "26.02.2024 07:46",
    "location": "Mittlerer Weg 2 / 76661 - Philippsburg / D",
    "locationCountry": "D",
    "locationPost": "76661",
    "lon": 8.471331,
    "lat": 49.222618
  },
  {
    "groupId": 1,
    "id": 4043,
    "name": "KR 054-JTR",
    "code": "2501243",
    "vehicleCode": "",
    "status": 0,
    "note": "KRONE VARIOS 2023",
    "time": "27.02.2024 00:22",
    "location": "210  / 4000 - Kranj / Orehek / SLO",
    "locationCountry": "SLO",
    "locationPost": "4000",
    "lon": 14.351588,
    "lat": 46.225536
  },
  {
    "groupId": 1,
    "id": 3986,
    "name": "KR 055-JTR",
    "code": "222322",
    "vehicleCode": "KR JTR-020",
    "status": 1,
    "note": "KRONE VARIUS 05.12.2022",
    "time": "27.02.2024 10:45",
    "location": "A8/E45/E52  / 83629 - Weyarn / Esterndorf / D",
    "locationCountry": "D",
    "locationPost": "83629",
    "lon": 11.842446,
    "lat": 47.861759
  },
  {
    "groupId": 1,
    "id": 429,
    "name": "KR 056-JTR",
    "code": "405",
    "vehicleCode": "",
    "status": 0,
    "note": "SCHMITZ, HLADILNIK, 2018",
    "time": "17.01.2024 15:32",
    "location": "ŠENÈUR - JURÈIÈ & Co",
    "locationCountry": "SLO",
    "locationPost": "",
    "lon": 14.410043,
    "lat": 46.234463
  },
  {
    "groupId": 1,
    "id": 450,
    "name": "KR 058-JTR",
    "code": "424",
    "vehicleCode": "",
    "status": 0,
    "note": "SCHMITZ\r\nKIPER 27M3",
    "time": "29.11.2023 14:52",
    "location": "ŠENÈUR - JURÈIÈ & Co (100 m W. from ) ",
    "locationCountry": "SLO",
    "locationPost": "",
    "lon": 14.409356,
    "lat": 46.234463
  },
  {
    "groupId": 1,
    "id": 3721,
    "name": "KR 060-JTR",
    "code": "2159",
    "vehicleCode": "",
    "status": 0,
    "note": "",
    "time": "10.01.2023 17:10",
    "location": "ŠENÈUR - JURÈIÈ & Co (100 m S.E. from ) ",
    "locationCountry": "SLO",
    "locationPost": "",
    "lon": 14.411373,
    "lat": 46.233864
  },
  {
    "groupId": 1,
    "id": 4040,
    "name": "KR 061-JTR",
    "code": "855644",
    "vehicleCode": "",
    "status": 0,
    "note": "KRONE 2023, VARIOS, BREZ PALET BOKSA",
    "time": "27.02.2024 09:24",
    "location": "210  / 4000 - Kranj / Orehek / SLO",
    "locationCountry": "SLO",
    "locationPost": "4000",
    "lon": 14.349185,
    "lat": 46.224808
  },
  {
    "groupId": 1,
    "id": 3995,
    "name": "KR 062-JTR",
    "code": "222331",
    "vehicleCode": "KR JTR-105",
    "status": 1,
    "note": "KRONE VARIOS 2.75 - 2.95M\r\n2022",
    "time": "27.02.2024 10:00",
    "location": "08503 - Gurb / Sant Julia Sassorba / E",
    "locationCountry": "E",
    "locationPost": "08503",
    "lon": 2.192833,
    "lat": 41.93425
  },
  {
    "groupId": 1,
    "id": 3993,
    "name": "KR 063-JTR",
    "code": "222329",
    "vehicleCode": "KR JTR-002",
    "status": 1,
    "note": "KRONE VARIUS 05.12.2022",
    "time": "27.02.2024 10:47",
    "location": "A7/E43  / 91583 - Diebach / Oberoestheim / D",
    "locationCountry": "D",
    "locationPost": "91583",
    "lon": 10.22485,
    "lat": 49.285835
  },
  {
    "groupId": 1,
    "id": 4038,
    "name": "KR 064-JTR",
    "code": "855642",
    "vehicleCode": "",
    "status": 0,
    "note": "KRONE 11.01.2024 MEGALINER Š.Š. 43351",
    "time": "27.02.2024 06:39",
    "location": "ŠENÈUR - JURÈIÈ & Co (100 m W. from ) ",
    "locationCountry": "SLO",
    "locationPost": "",
    "lon": 14.409828,
    "lat": 46.234333
  },
  {
    "groupId": 1,
    "id": 305,
    "name": "KR 065-JTR",
    "code": "281",
    "vehicleCode": "",
    "status": 0,
    "note": "FLIEGL 2019 cerada",
    "time": "07.09.2023 21:45",
    "location": "ŠENÈUR - JURÈIÈ & Co (100 m W. from ) ",
    "locationCountry": "SLO",
    "locationPost": "",
    "lon": 14.409914,
    "lat": 46.234333
  },
  {
    "groupId": 1,
    "id": 3888,
    "name": "KR 066-JTR",
    "code": "222228",
    "vehicleCode": "",
    "status": 0,
    "note": "FLIEGEL Megaliner 09.03.2019",
    "time": "21.02.2024 23:51",
    "location": "A7/E45  / 36093 - Künzell / Steinhauck / D",
    "locationCountry": "D",
    "locationPost": "36093",
    "lon": 9.738154,
    "lat": 50.508453
  },
  {
    "groupId": 1,
    "id": 3890,
    "name": "KR 067-JTR",
    "code": "222230",
    "vehicleCode": "KR JTR-009",
    "status": 1,
    "note": "Fliegel Megaliner 23.03.2019",
    "time": "27.02.2024 10:46",
    "location": "Superstrada Transpolesana  / 37050 - Oppeano / I",
    "locationCountry": "I",
    "locationPost": "37050",
    "lon": 11.1475,
    "lat": 45.2999
  },
  {
    "groupId": 1,
    "id": 460,
    "name": "KR 068-JTR",
    "code": "431",
    "vehicleCode": "",
    "status": 0,
    "note": "FLIEGL, 2019 cerada\r\n",
    "time": "19.02.2024 15:35",
    "location": "ŠENÈUR - JURÈIÈ & Co (100 m N.E. from ) ",
    "locationCountry": "SLO",
    "locationPost": "",
    "lon": 14.41103,
    "lat": 46.234894
  },
  {
    "groupId": 1,
    "id": 461,
    "name": "KR 069-JTR",
    "code": "348",
    "vehicleCode": "",
    "status": 0,
    "note": "FLIEGL 2019 cerada",
    "time": "27.02.2024 09:54",
    "location": "ŠENÈUR - JURÈIÈ & Co (100 m N.W. from ) ",
    "locationCountry": "SLO",
    "locationPost": "",
    "lon": 14.410086,
    "lat": 46.234936
  },
  {
    "groupId": 1,
    "id": 462,
    "name": "KR 070-JTR",
    "code": "208",
    "vehicleCode": "",
    "status": 0,
    "note": "FLIEGL cerada 2019",
    "time": "15.07.2022 07:47",
    "location": "ŠENÈUR - JURÈIÈ & Co (100 m W. from ) ",
    "locationCountry": "SLO",
    "locationPost": "",
    "lon": 14.409356,
    "lat": 46.234379
  },
  {
    "groupId": 1,
    "id": 3953,
    "name": "KR 071-JTR",
    "code": "222289",
    "vehicleCode": "",
    "status": 0,
    "note": "FLIEGEL VARIUS 27.03.2019",
    "time": "28.08.2023 13:24",
    "location": "ŠENÈUR - JURÈIÈ & Co (100 m S.E. from ) ",
    "locationCountry": "SLO",
    "locationPost": "",
    "lon": 14.411244,
    "lat": 46.234291
  },
  {
    "groupId": 1,
    "id": 3974,
    "name": "KR 072-JTR",
    "code": "222310",
    "vehicleCode": "",
    "status": 0,
    "note": "KRONE VARIUS 09.12.2022",
    "time": "27.02.2024 08:37",
    "location": "Mittlerer Weg 2 / 76661 - Philippsburg / D (200 m from ) ",
    "locationCountry": "D",
    "locationPost": "76661",
    "lon": 8.470859,
    "lat": 49.223434
  },
  {
    "groupId": 1,
    "id": 3844,
    "name": "KR 073-JTR",
    "code": "2282",
    "vehicleCode": "",
    "status": 0,
    "note": "FLIGEL Varius 06.04.2019",
    "time": "14.09.2023 08:58",
    "location": "PFORZHEIM (900 m N.W. from ) ",
    "locationCountry": "D",
    "locationPost": "",
    "lon": 8.764421,
    "lat": 48.914764
  },
  {
    "groupId": 1,
    "id": 3994,
    "name": "KR 074-JTR",
    "code": "222330",
    "vehicleCode": "",
    "status": 0,
    "note": "KRONE VARIOS 2.75-2.95M\r\n2022",
    "time": "22.02.2024 15:41",
    "location": "ŠENÈUR - JURÈIÈ & Co (100 m W. from ) ",
    "locationCountry": "SLO",
    "locationPost": "",
    "lon": 14.40927,
    "lat": 46.234592
  },
  {
    "groupId": 1,
    "id": 4005,
    "name": "KR 075-JTR",
    "code": "228591",
    "vehicleCode": "KR JTR-098",
    "status": 1,
    "note": "KRONE VARIOS\r\n2022\r\n",
    "time": "27.02.2024 10:47",
    "location": "L3139  / 36358 - Herbstein / Rixfeld / D",
    "locationCountry": "D",
    "locationPost": "36358",
    "lon": 9.356009,
    "lat": 50.582233
  },
  {
    "groupId": 1,
    "id": 2000,
    "name": "KR 076-JTR",
    "code": "1948",
    "vehicleCode": "",
    "status": 0,
    "note": "WF KNAPEN 26.07.2019",
    "time": "26.08.2022 08:55",
    "location": "210  / 4000 - Kranj / Orehek / SLO",
    "locationCountry": "SLO",
    "locationPost": "4000",
    "lon": 14.351245,
    "lat": 46.225624
  },
  {
    "groupId": 1,
    "id": 3983,
    "name": "KR 078-JTR",
    "code": "222319",
    "vehicleCode": "",
    "status": 0,
    "note": "Krone Varius 09.12.2022 (profi liner)",
    "time": "23.02.2024 12:00",
    "location": "ŠENÈUR - JURÈIÈ & Co (100 m E. from ) ",
    "locationCountry": "SLO",
    "locationPost": "",
    "lon": 14.411974,
    "lat": 46.234333
  },
  {
    "groupId": 1,
    "id": 3987,
    "name": "KR 079-JTR",
    "code": "222323",
    "vehicleCode": "",
    "status": 0,
    "note": "KRONE VARIUS 08.12.2022\r\n",
    "time": "27.02.2024 10:40",
    "location": "210  / 4000 - Kranj / Orehek / SLO",
    "locationCountry": "SLO",
    "locationPost": "4000",
    "lon": 14.350472,
    "lat": 46.225063
  },
  {
    "groupId": 1,
    "id": 4039,
    "name": "KR 082-JTR",
    "code": "855643",
    "vehicleCode": "",
    "status": 0,
    "note": "KRONE 2023, VARIOS BREZ PALET BOKSA\r\n",
    "time": "23.02.2024 09:43",
    "location": "ŠENÈUR - JURÈIÈ & Co (100 m S.E. from ) ",
    "locationCountry": "SLO",
    "locationPost": "",
    "lon": 14.410858,
    "lat": 46.23399
  },
  {
    "groupId": 1,
    "id": 3784,
    "name": "KR 083-JTR",
    "code": "2222",
    "vehicleCode": "",
    "status": 0,
    "note": "WF SCHWARZMULLER 11.05.2020",
    "time": "02.09.2022 17:35",
    "location": "ŠENÈUR - JURÈIÈ & Co (100 m S.E. from ) ",
    "locationCountry": "SLO",
    "locationPost": "",
    "lon": 14.411416,
    "lat": 46.234035
  },
  {
    "groupId": 1,
    "id": 3390,
    "name": "KR 084-JTR",
    "code": "2027",
    "vehicleCode": "",
    "status": 0,
    "note": "WF SCHWARZMULLER 28.04.2020",
    "time": "28.10.2023 07:25",
    "location": "4000 - Kranj / Orehek / SLO",
    "locationCountry": "SLO",
    "locationPost": "4000",
    "lon": 14.35,
    "lat": 46.225021
  },
  {
    "groupId": 1,
    "id": 4045,
    "name": "KR 085-JTR",
    "code": "260224",
    "vehicleCode": "",
    "status": 0,
    "note": "KRONE 2024 PROFI LINER, PALET BOKS",
    "time": "",
    "location": "",
    "locationCountry": "",
    "locationPost": "",
    "lon": 0.0,
    "lat": 0.0
  },
  {
    "groupId": 1,
    "id": 3892,
    "name": "KR 085-JTR-WF",
    "code": "222232",
    "vehicleCode": "",
    "status": 0,
    "note": "WF SCHWARZMULLER 13.05.2020",
    "time": "27.07.2023 12:49",
    "location": "ŠENÈUR - JURÈIÈ & Co",
    "locationCountry": "SLO",
    "locationPost": "",
    "lon": 14.410172,
    "lat": 46.234379
  },
  {
    "groupId": 1,
    "id": 472,
    "name": "KR 086-JTR",
    "code": "438",
    "vehicleCode": "",
    "status": 0,
    "note": "BENALU-KIPER, 2019",
    "time": "17.11.2022 09:21",
    "location": "ŠENÈUR - JURÈIÈ & Co (100 m S. from ) ",
    "locationCountry": "SLO",
    "locationPost": "",
    "lon": 14.410944,
    "lat": 46.233864
  },
  {
    "groupId": 1,
    "id": 468,
    "name": "KR 087-JTR",
    "code": "433",
    "vehicleCode": "",
    "status": 0,
    "note": "BENALU KIPER, 2019",
    "time": "13.02.2024 08:48",
    "location": "ŠENÈUR - JURÈIÈ & Co (100 m S.E. from ) ",
    "locationCountry": "SLO",
    "locationPost": "",
    "lon": 14.411373,
    "lat": 46.233776
  },
  {
    "groupId": 1,
    "id": 473,
    "name": "KR 088-JTR",
    "code": "439",
    "vehicleCode": "KR JTR-031",
    "status": 1,
    "note": "BENALU-KIPER, 2019",
    "time": "27.02.2024 10:47",
    "location": "Gubaševo / HR (200 m from ) ",
    "locationCountry": "HR",
    "locationPost": "",
    "lon": 15.871674,
    "lat": 46.007984
  },
  {
    "groupId": 1,
    "id": 474,
    "name": "KR 089-JTR",
    "code": "440",
    "vehicleCode": "",
    "status": 0,
    "note": "BENALU-KIPER, 2019\r\n",
    "time": "11.04.2023 13:49",
    "location": "ŠENÈUR - JURÈIÈ & Co (100 m S. from ) ",
    "locationCountry": "SLO",
    "locationPost": "",
    "lon": 14.410987,
    "lat": 46.233818
  },
  {
    "groupId": 1,
    "id": 475,
    "name": "KR 090-JTR",
    "code": "441",
    "vehicleCode": "",
    "status": 0,
    "note": "BENALU-KIPER, 2019",
    "time": "22.12.2023 11:21",
    "location": "ŠENÈUR - JURÈIÈ & Co (100 m S.E. from ) ",
    "locationCountry": "SLO",
    "locationPost": "",
    "lon": 14.411588,
    "lat": 46.233906
  },
  {
    "groupId": 1,
    "id": 478,
    "name": "KR 092-JTR",
    "code": "1",
    "vehicleCode": "",
    "status": 0,
    "note": "BENALU-KIPER, 2019-48m¡",
    "time": "22.08.2023 15:50",
    "location": "ŠENÈUR - JURÈIÈ & Co (100 m S.E. from ) ",
    "locationCountry": "SLO",
    "locationPost": "",
    "lon": 14.411116,
    "lat": 46.233818
  },
  {
    "groupId": 1,
    "id": 3954,
    "name": "KR 093 -JTR",
    "code": "222290",
    "vehicleCode": "",
    "status": 0,
    "note": "BENALU KIP 64M3, 06.07.2019",
    "time": "31.08.2022 19:07",
    "location": "ŠENÈUR - JURÈIÈ & Co (100 m S. from ) ",
    "locationCountry": "SLO",
    "locationPost": "",
    "lon": 14.410944,
    "lat": 46.233818
  },
  {
    "groupId": 1,
    "id": 3719,
    "name": "KR 093-JTR",
    "code": "2157",
    "vehicleCode": "",
    "status": 0,
    "note": "BENALI-KIPER 63M3 06.07.2019",
    "time": "08.07.2021 09:07",
    "location": "ŠENÈUR - JURÈIÈ & Co",
    "locationCountry": "SLO",
    "locationPost": "",
    "lon": 14.410086,
    "lat": 46.234333
  },
  {
    "groupId": 1,
    "id": 4034,
    "name": "KR 094-JTR",
    "code": "855640",
    "vehicleCode": "KR JTR-005",
    "status": 1,
    "note": "",
    "time": "27.02.2024 10:46",
    "location": "Birkenhainer Straße  / 63450 - Hanau / D (200 m from ) ",
    "locationCountry": "D",
    "locationPost": "63450",
    "lon": 8.942618,
    "lat": 50.121544
  },
  {
    "groupId": 1,
    "id": 4035,
    "name": "KR 095-JTR",
    "code": "855641",
    "vehicleCode": "",
    "status": 0,
    "note": "",
    "time": "13.02.2024 07:09",
    "location": "76307 - Darbach / D",
    "locationCountry": "D",
    "locationPost": "76307",
    "lon": 8.507554,
    "lat": 48.941074
  },
  {
    "groupId": 1,
    "id": 4037,
    "name": "KR 097-JTR",
    "code": "98123",
    "vehicleCode": "",
    "status": 0,
    "note": "KRONE MEGA VARIOS, 2023, 13.11.2023",
    "time": "24.02.2024 12:53",
    "location": "ŠENÈUR - JURÈIÈ & Co (100 m S.E. from ) ",
    "locationCountry": "SLO",
    "locationPost": "",
    "lon": 14.411287,
    "lat": 46.234207
  },
  {
    "groupId": 1,
    "id": 4036,
    "name": "KR 098-JTR",
    "code": "88541",
    "vehicleCode": "",
    "status": 0,
    "note": "KRONE, 2023, MEGA LINER",
    "time": "24.02.2024 15:18",
    "location": "4000 - Kranj / Orehek / SLO",
    "locationCountry": "SLO",
    "locationPost": "4000",
    "lon": 14.349442,
    "lat": 46.225151
  },
  {
    "groupId": 1,
    "id": 4033,
    "name": "KR 099-JTR",
    "code": "855639",
    "vehicleCode": "",
    "status": 0,
    "note": "KRONE MEGA BREZ BOXOV\r\n16.10.2023",
    "time": "26.02.2024 08:39",
    "location": "ŠENÈUR - JURÈIÈ & Co (100 m S.E. from ) ",
    "locationCountry": "SLO",
    "locationPost": "",
    "lon": 14.411201,
    "lat": 46.233864
  },
  {
    "groupId": 1,
    "id": 384,
    "name": "KR 100-JTR",
    "code": "357",
    "vehicleCode": "",
    "status": 0,
    "note": "BENALU 64 M3",
    "time": "09.09.2022 11:30",
    "location": "ŠENÈUR - JURÈIÈ & Co (100 m S.E. from ) ",
    "locationCountry": "SLO",
    "locationPost": "",
    "lon": 14.411116,
    "lat": 46.233776
  },
  {
    "groupId": 1,
    "id": 483,
    "name": "KR 101-JTR",
    "code": "6",
    "vehicleCode": "",
    "status": 0,
    "note": "BENALU-KIPER, 2019, 48m3",
    "time": "06.05.2022 19:36",
    "location": "ŠENÈUR - JURÈIÈ & Co (100 m E. from ) ",
    "locationCountry": "SLO",
    "locationPost": "",
    "lon": 14.411502,
    "lat": 46.234379
  },
  {
    "groupId": 1,
    "id": 3621,
    "name": "KR 104-JTR",
    "code": "2059",
    "vehicleCode": "",
    "status": 0,
    "note": "BENALU-KIPER 63M3 12.08.2019 ",
    "time": "18.08.2022 09:50",
    "location": "33170 - Pordenone / I",
    "locationCountry": "I",
    "locationPost": "33170",
    "lon": 12.652404,
    "lat": 45.958797
  },
  {
    "groupId": 1,
    "id": 3398,
    "name": "KR 105-JTR",
    "code": "222222",
    "vehicleCode": "",
    "status": 0,
    "note": "Benalu - Kiper 12.08.2019",
    "time": "23.09.2022 01:41",
    "location": "ŠENÈUR - JURÈIÈ & Co (100 m W. from ) ",
    "locationCountry": "SLO",
    "locationPost": "",
    "lon": 14.40927,
    "lat": 46.234592
  },
  {
    "groupId": 1,
    "id": 3897,
    "name": "KR 112 -JTR",
    "code": "222236",
    "vehicleCode": "",
    "status": 0,
    "note": "WF Schwarzmüller 13.05.2020",
    "time": "17.08.2023 11:49",
    "location": "ŠENÈUR - JURÈIÈ & Co (100 m S.E. from ) ",
    "locationCountry": "SLO",
    "locationPost": "",
    "lon": 14.411159,
    "lat": 46.234291
  },
  {
    "groupId": 1,
    "id": 3676,
    "name": "KR 113-JTR",
    "code": "2114",
    "vehicleCode": "KR JTR-089",
    "status": 1,
    "note": "kögel Mega 03.03.2020",
    "time": "27.02.2024 10:45",
    "location": "50331 - Mara / E",
    "locationCountry": "E",
    "locationPost": "50331",
    "lon": -1.504034,
    "lat": 41.29678
  },
  {
    "groupId": 1,
    "id": 3889,
    "name": "KR 118-JTR",
    "code": "222229",
    "vehicleCode": "",
    "status": 0,
    "note": "WF - Schwarmüller 15.05.2020",
    "time": "10.01.2024 14:21",
    "location": "4000 - Kranj / Orehek / SLO",
    "locationCountry": "SLO",
    "locationPost": "4000",
    "lon": 14.348885,
    "lat": 46.224979
  },
  {
    "groupId": 1,
    "id": 4007,
    "name": "KR 119-JTR",
    "code": "855616",
    "vehicleCode": "",
    "status": 0,
    "note": "WF - Schwarzmüller 18.05.2020",
    "time": "11.08.2023 16:06",
    "location": "ŠENÈUR - JURÈIÈ & Co (100 m S.E. from ) ",
    "locationCountry": "SLO",
    "locationPost": "",
    "lon": 14.410901,
    "lat": 46.23399
  },
  {
    "groupId": 1,
    "id": 4001,
    "name": "KR 120-JTR",
    "code": "228553",
    "vehicleCode": "",
    "status": 0,
    "note": "SCHWARZMÜLLER WALKINGFLOOR\r\n2020 LETNIK",
    "time": "02.02.2024 15:45",
    "location": "210  / 4000 - Kranj / Orehek / SLO",
    "locationCountry": "SLO",
    "locationPost": "4000",
    "lon": 14.351631,
    "lat": 46.225624
  },
  {
    "groupId": 1,
    "id": 485,
    "name": "KR 121-JTR",
    "code": "8",
    "vehicleCode": "",
    "status": 0,
    "note": "BENALU-KIPER, 2019, 48m3",
    "time": "21.08.2023 14:11",
    "location": "ŠENÈUR - JURÈIÈ & Co (100 m S.E. from ) ",
    "locationCountry": "SLO",
    "locationPost": "",
    "lon": 14.411502,
    "lat": 46.233692
  },
  {
    "groupId": 1,
    "id": 486,
    "name": "KR 122-JTR",
    "code": "9",
    "vehicleCode": "",
    "status": 0,
    "note": "BENALU-KIPER, 2019, 48m3",
    "time": "24.06.2021 13:50",
    "location": "ŠENÈUR - JURÈIÈ & Co (100 m S.E. from ) ",
    "locationCountry": "SLO",
    "locationPost": "",
    "lon": 14.411416,
    "lat": 46.234119
  },
  {
    "groupId": 1,
    "id": 487,
    "name": "KR 123-JTR",
    "code": "10",
    "vehicleCode": "",
    "status": 0,
    "note": "BENALU-KIPER, 2019, 48m3\r\n",
    "time": "18.05.2022 07:14",
    "location": "ŠENÈUR - JURÈIÈ & Co",
    "locationCountry": "SLO",
    "locationPost": "",
    "lon": 14.410901,
    "lat": 46.234077
  },
  {
    "groupId": 1,
    "id": 4006,
    "name": "KR 125-JTR",
    "code": "855615",
    "vehicleCode": "",
    "status": 0,
    "note": "BENALU 55M3 ,  dat. reg.: 26.08.2019",
    "time": "27.02.2024 09:54",
    "location": "ŠENÈUR - JURÈIÈ & Co (100 m E. from ) ",
    "locationCountry": "SLO",
    "locationPost": "",
    "lon": 14.41133,
    "lat": 46.234291
  },
  {
    "groupId": 1,
    "id": 492,
    "name": "KR 128-JTR",
    "code": "15",
    "vehicleCode": "",
    "status": 0,
    "note": "BENALU-KIPER, 2019, 48m3",
    "time": "01.08.2022 14:01",
    "location": "ŠENÈUR - JURÈIÈ & Co (100 m S.E. from ) ",
    "locationCountry": "SLO",
    "locationPost": "",
    "lon": 14.411588,
    "lat": 46.233948
  },
  {
    "groupId": 1,
    "id": 493,
    "name": "KR 129-JTR",
    "code": "16",
    "vehicleCode": "",
    "status": 0,
    "note": "BENALU-KIPER, 2019, 48m3",
    "time": "17.11.2023 13:44",
    "location": "ŠENÈUR - JURÈIÈ & Co (100 m S.E. from ) ",
    "locationCountry": "SLO",
    "locationPost": "",
    "lon": 14.411502,
    "lat": 46.233646
  },
  {
    "groupId": 1,
    "id": 3963,
    "name": "KR 130- JTR",
    "code": "222299",
    "vehicleCode": "",
    "status": 0,
    "note": "BENALU KIPER 55M3 23.08.2019",
    "time": "20.10.2023 14:49",
    "location": "ŠENÈUR - JURÈIÈ & Co (100 m S.E. from ) ",
    "locationCountry": "SLO",
    "locationPost": "",
    "lon": 14.411974,
    "lat": 46.233906
  },
  {
    "groupId": 1,
    "id": 3764,
    "name": "KR 131-JTR",
    "code": "2202",
    "vehicleCode": "",
    "status": 0,
    "note": "Krone Varius 24.01.2020",
    "time": "26.02.2024 09:02",
    "location": "4000 - Kranj / Orehek / SLO",
    "locationCountry": "SLO",
    "locationPost": "4000",
    "lon": 14.349185,
    "lat": 46.225063
  },
  {
    "groupId": 1,
    "id": 3622,
    "name": "KR 132-JTR",
    "code": "2060",
    "vehicleCode": "KR JTR-114",
    "status": 1,
    "note": "Krone - Varius 29.01.2020",
    "time": "27.02.2024 10:44",
    "location": "Hrušica 223 / 4276 - Jesenice / SLO",
    "locationCountry": "SLO",
    "locationPost": "4276",
    "lon": 13.996352,
    "lat": 46.449615
  },
  {
    "groupId": 1,
    "id": 3659,
    "name": "KR 133-JTR",
    "code": "2097",
    "vehicleCode": "",
    "status": 0,
    "note": "Krone - Varius 31.01.2020",
    "time": "02.02.2024 11:58",
    "location": "A8/E52  / 89160 - Dornstadt / Temmenhausen / D",
    "locationCountry": "D",
    "locationPost": "89160",
    "lon": 9.864764,
    "lat": 48.484035
  },
  {
    "groupId": 1,
    "id": 3656,
    "name": "KR 134-JTR",
    "code": "2094",
    "vehicleCode": "KR JTR-109",
    "status": 1,
    "note": "Krone - Varius 03.02.2020",
    "time": "27.02.2024 10:47",
    "location": "67063 - Ludwigshafen am Rhein / Friesenheim / D (100 m from ) ",
    "locationCountry": "D",
    "locationPost": "67063",
    "lon": 8.4197,
    "lat": 49.509529
  },
  {
    "groupId": 1,
    "id": 3660,
    "name": "KR 135-JTR",
    "code": "2098",
    "vehicleCode": "KR JTR-081",
    "status": 1,
    "note": "Krone  - Varius 31.01.2020",
    "time": "27.02.2024 10:00",
    "location": "08503 - Gurb / Sant Julia Sassorba / E",
    "locationCountry": "E",
    "locationPost": "08503",
    "lon": 2.193047,
    "lat": 41.934162
  },
  {
    "groupId": 1,
    "id": 3959,
    "name": "KR 136-JTR",
    "code": "222295",
    "vehicleCode": "",
    "status": 0,
    "note": "KRONE PROFILINER 03.02.2020",
    "time": "26.02.2024 19:14",
    "location": "ŠENÈUR - JURÈIÈ & Co",
    "locationCountry": "SLO",
    "locationPost": "",
    "lon": 14.410214,
    "lat": 46.234505
  },
  {
    "groupId": 1,
    "id": 2002,
    "name": "KR 137-JTR",
    "code": "1950",
    "vehicleCode": "",
    "status": 0,
    "note": "Krone - Varius 31.01.2020",
    "time": "19.02.2024 09:16",
    "location": "ŠENÈUR - JURÈIÈ & Co",
    "locationCountry": "SLO",
    "locationPost": "",
    "lon": 14.410172,
    "lat": 46.234463
  },
  {
    "groupId": 1,
    "id": 3882,
    "name": "KR 138-JTR",
    "code": "222224",
    "vehicleCode": "KR JTR-012",
    "status": 1,
    "note": "Krone - Varius 31.01.2020",
    "time": "27.02.2024 10:46",
    "location": "WUPPERTAL (500 m S.W. from ) ",
    "locationCountry": "D",
    "locationPost": "",
    "lon": 7.159442,
    "lat": 51.269012
  },
  {
    "groupId": 1,
    "id": 3662,
    "name": "KR 139-JTR",
    "code": "2100",
    "vehicleCode": "KR JTR-036",
    "status": 1,
    "note": "Krone - Varius  07.02.2020 ",
    "time": "27.02.2024 10:45",
    "location": "65795 - Hattersheim am Main / Eddersheim / D",
    "locationCountry": "D",
    "locationPost": "65795",
    "lon": 8.477253,
    "lat": 50.031715
  },
  {
    "groupId": 1,
    "id": 3661,
    "name": "KR 140-JTR",
    "code": "2099",
    "vehicleCode": "",
    "status": 0,
    "note": "Krone - varius 28.01.2020",
    "time": "20.02.2024 08:21",
    "location": "210  / 4000 - Kranj / Orehek / SLO",
    "locationCountry": "SLO",
    "locationPost": "4000",
    "lon": 14.350472,
    "lat": 46.225151
  },
  {
    "groupId": 1,
    "id": 3623,
    "name": "KR 141-JTR",
    "code": "2061",
    "vehicleCode": "",
    "status": 0,
    "note": "Krone - Megaliner 24.01.2020\r\n ",
    "time": "20.02.2024 15:29",
    "location": "ŠENÈUR - JURÈIÈ & Co",
    "locationCountry": "SLO",
    "locationPost": "",
    "lon": 14.410257,
    "lat": 46.234379
  },
  {
    "groupId": 1,
    "id": 3383,
    "name": "KR 142-JTR",
    "code": "2051",
    "vehicleCode": "KR JTR-040",
    "status": 1,
    "note": "Krone - Megaliner 21.01.2020 ",
    "time": "27.02.2024 10:47",
    "location": "Autostrada Adriatica  / 71010 - Serracapriola / I",
    "locationCountry": "I",
    "locationPost": "71010",
    "lon": 15.247082,
    "lat": 41.899914
  },
  {
    "groupId": 1,
    "id": 3651,
    "name": "KR 144-JTR",
    "code": "2089",
    "vehicleCode": "",
    "status": 0,
    "note": "Krone - Megaliner 17.01.2020",
    "time": "21.02.2024 16:48",
    "location": "Jurjevgradska  / 22211 - Vodice / HR",
    "locationCountry": "HR",
    "locationPost": "22211",
    "lon": 15.752747,
    "lat": 43.752491
  },
  {
    "groupId": 1,
    "id": 3655,
    "name": "KR 145-JTR",
    "code": "2093",
    "vehicleCode": "",
    "status": 0,
    "note": "Krone - Megaliner 17.01.2020 ",
    "time": "24.02.2024 06:04",
    "location": "ŠENÈUR - JURÈIÈ & Co",
    "locationCountry": "SLO",
    "locationPost": "",
    "lon": 14.410858,
    "lat": 46.234379
  },
  {
    "groupId": 1,
    "id": 3717,
    "name": "KR 146-JTR",
    "code": "2155",
    "vehicleCode": "",
    "status": 0,
    "note": "Krone - Megaliner 17.01.2020",
    "time": "13.07.2023 08:28",
    "location": "4000 - Kranj / Orehek / SLO",
    "locationCountry": "SLO",
    "locationPost": "4000",
    "lon": 14.349657,
    "lat": 46.225151
  },
  {
    "groupId": 1,
    "id": 3797,
    "name": "KR 147-JTR",
    "code": "2235",
    "vehicleCode": "",
    "status": 0,
    "note": "Krone - Megaliner 07.02.2020",
    "time": "23.02.2024 16:12",
    "location": "ŠENÈUR - JURÈIÈ & Co (100 m W. from ) ",
    "locationCountry": "SLO",
    "locationPost": "",
    "lon": 14.409227,
    "lat": 46.234463
  },
  {
    "groupId": 1,
    "id": 3654,
    "name": "KR 148-JTR",
    "code": "2092",
    "vehicleCode": "",
    "status": 0,
    "note": "Krone - Megaliner 07.02.2020",
    "time": "16.02.2024 14:27",
    "location": "ŠENÈUR - JURÈIÈ & Co (100 m E. from ) ",
    "locationCountry": "SLO",
    "locationPost": "",
    "lon": 14.411888,
    "lat": 46.234207
  },
  {
    "groupId": 1,
    "id": 3981,
    "name": "KR 149-JTR",
    "code": "222317",
    "vehicleCode": "KR JTR-033",
    "status": 1,
    "note": "KRONE Megatrailer 07.02.2020",
    "time": "27.02.2024 10:22",
    "location": "Raiffeisenring 1 / 56746 - Kempenich / D",
    "locationCountry": "D",
    "locationPost": "56746",
    "lon": 7.115665,
    "lat": 50.431889
  },
  {
    "groupId": 1,
    "id": 3653,
    "name": "KR 150-JTR",
    "code": "2091",
    "vehicleCode": "KR JTR-104",
    "status": 1,
    "note": "Krone - Megaliner 07.02.2020",
    "time": "27.02.2024 10:22",
    "location": "54516 - Wittlich / D",
    "locationCountry": "D",
    "locationPost": "54516",
    "lon": 6.909828,
    "lat": 49.984848
  },
  {
    "groupId": 1,
    "id": 2008,
    "name": "KR 151-JTR",
    "code": "1956",
    "vehicleCode": "",
    "status": 0,
    "note": "WF - Schwarzmüller 07.02.2020",
    "time": "03.11.2023 09:38",
    "location": "ŠENÈUR - JURÈIÈ & Co",
    "locationCountry": "SLO",
    "locationPost": "",
    "lon": 14.410257,
    "lat": 46.234379
  },
  {
    "groupId": 1,
    "id": 3891,
    "name": "KR 153-JTR",
    "code": "222231",
    "vehicleCode": "",
    "status": 0,
    "note": "WF - Schwarzmüller 08.06.2020",
    "time": "26.02.2024 14:33",
    "location": "ŠENÈUR - JURÈIÈ & Co",
    "locationCountry": "SLO",
    "locationPost": "",
    "lon": 14.410987,
    "lat": 46.234463
  },
  {
    "groupId": 1,
    "id": 3938,
    "name": "KR 154-JTR",
    "code": "222274",
    "vehicleCode": "",
    "status": 0,
    "note": "SCHWARZMÜLLER (WF) 09.06.2020",
    "time": "15.02.2024 17:43",
    "location": "ŠENÈUR - JURÈIÈ & Co (100 m S.E. from ) ",
    "locationCountry": "SLO",
    "locationPost": "",
    "lon": 14.411502,
    "lat": 46.234161
  },
  {
    "groupId": 1,
    "id": 3816,
    "name": "KR 155-JTR",
    "code": "2254",
    "vehicleCode": "",
    "status": 0,
    "note": "Wf - Schwarzmüller 20.06.2020",
    "time": "15.01.2022 13:28",
    "location": "ŠENÈUR - JURÈIÈ & Co (100 m S.E. from ) ",
    "locationCountry": "SLO",
    "locationPost": "",
    "lon": 14.411373,
    "lat": 46.234035
  },
  {
    "groupId": 1,
    "id": 3956,
    "name": "KR 156-JTR",
    "code": "222292",
    "vehicleCode": "",
    "status": 0,
    "note": "SCHWARZMULLER WF 94M3 20.06.2020",
    "time": "29.08.2023 15:48",
    "location": "ŠENÈUR - JURÈIÈ & Co",
    "locationCountry": "SLO",
    "locationPost": "",
    "lon": 14.410386,
    "lat": 46.234764
  },
  {
    "groupId": 1,
    "id": 3940,
    "name": "KR 157-JTR",
    "code": "222276",
    "vehicleCode": "",
    "status": 0,
    "note": "WF - Schwarzmüller 20.06.2020",
    "time": "08.12.2023 08:53",
    "location": "Mittlerer Weg 2 / 76661 - Philippsburg / D (200 m from ) ",
    "locationCountry": "D",
    "locationPost": "76661",
    "lon": 8.470987,
    "lat": 49.223217
  },
  {
    "groupId": 1,
    "id": 3944,
    "name": "KR 158-JTR",
    "code": "222280",
    "vehicleCode": "",
    "status": 0,
    "note": "WF - Schwarzmüller 20.06.2020",
    "time": "21.12.2023 13:53",
    "location": "ŠENÈUR - JURÈIÈ & Co (100 m S.E. from ) ",
    "locationCountry": "SLO",
    "locationPost": "",
    "lon": 14.411459,
    "lat": 46.233948
  },
  {
    "groupId": 1,
    "id": 3808,
    "name": "KR 159-JTR",
    "code": "2246",
    "vehicleCode": "",
    "status": 0,
    "note": "WF - Schwarzmüller 11.07.2020",
    "time": "25.09.2023 12:20",
    "location": "ŠENÈUR - JURÈIÈ & Co",
    "locationCountry": "SLO",
    "locationPost": "",
    "lon": 14.410987,
    "lat": 46.234333
  },
  {
    "groupId": 1,
    "id": 3809,
    "name": "KR 162-JTR",
    "code": "2247",
    "vehicleCode": "",
    "status": 0,
    "note": "Benalu - Kiper 64 m3 18.09.2020",
    "time": "22.02.2024 11:03",
    "location": "ŠENÈUR - JURÈIÈ & Co (100 m S.E. from ) ",
    "locationCountry": "SLO",
    "locationPost": "",
    "lon": 14.41133,
    "lat": 46.233818
  },
  {
    "groupId": 1,
    "id": 3812,
    "name": "KR 166-JTR",
    "code": "2250",
    "vehicleCode": "",
    "status": 0,
    "note": "benalu - Kiper 64 m3, 23.09.2020",
    "time": "15.02.2024 12:06",
    "location": "ŠENÈUR - JURÈIÈ & Co (100 m S.E. from ) ",
    "locationCountry": "SLO",
    "locationPost": "",
    "lon": 14.411159,
    "lat": 46.233818
  },
  {
    "groupId": 1,
    "id": 3833,
    "name": "KR 167-JTR",
    "code": "2271",
    "vehicleCode": "",
    "status": 0,
    "note": "Benalu - Kiper 64m3 26.09.2020",
    "time": "11.11.2022 09:48",
    "location": "ŠENÈUR - JURÈIÈ & Co (100 m S. from ) ",
    "locationCountry": "SLO",
    "locationPost": "",
    "lon": 14.410944,
    "lat": 46.233818
  },
  {
    "groupId": 1,
    "id": 4014,
    "name": "KR 168- JTR",
    "code": "855620",
    "vehicleCode": "",
    "status": 0,
    "note": "BENALU KIPER 64M3, 26.09.2020 ",
    "time": "06.09.2023 07:49",
    "location": "ŠENÈUR - JURÈIÈ & Co",
    "locationCountry": "SLO",
    "locationPost": "",
    "lon": 14.410987,
    "lat": 46.234505
  },
  {
    "groupId": 1,
    "id": 3810,
    "name": "KR 168-JTR",
    "code": "2248",
    "vehicleCode": "",
    "status": 0,
    "note": "Benalu - Kiper 64m3, 26.09.2020",
    "time": "11.05.2022 10:52",
    "location": "ŠENÈUR - JURÈIÈ & Co",
    "locationCountry": "SLO",
    "locationPost": "",
    "lon": 14.410815,
    "lat": 46.234505
  },
  {
    "groupId": 1,
    "id": 3389,
    "name": "KR 169-JTR",
    "code": "2026",
    "vehicleCode": "",
    "status": 0,
    "note": "Benalu Kiper 64m3 , 09.10.2020 ",
    "time": "16.11.2022 13:49",
    "location": "ŠENÈUR - JURÈIÈ & Co (100 m S. from ) ",
    "locationCountry": "SLO",
    "locationPost": "",
    "lon": 14.410858,
    "lat": 46.233864
  },
  {
    "groupId": 1,
    "id": 3813,
    "name": "KR 170-JTR",
    "code": "2251",
    "vehicleCode": "",
    "status": 0,
    "note": "Benalu Kiper 64m3 09.10.2020",
    "time": "10.11.2022 12:06",
    "location": "ŠENÈUR - JURÈIÈ & Co (100 m S.E. from ) ",
    "locationCountry": "SLO",
    "locationPost": "",
    "lon": 14.411888,
    "lat": 46.233604
  },
  {
    "groupId": 1,
    "id": 3818,
    "name": "KR 172-JTR",
    "code": "2256",
    "vehicleCode": "",
    "status": 0,
    "note": "Benalu Kiper 64m3 16.10.2020",
    "time": "04.12.2023 13:43",
    "location": "ŠENÈUR - JURÈIÈ & Co (100 m S.E. from ) ",
    "locationCountry": "SLO",
    "locationPost": "",
    "lon": 14.412189,
    "lat": 46.233948
  },
  {
    "groupId": 1,
    "id": 3815,
    "name": "KR 173-JTR",
    "code": "2253",
    "vehicleCode": "",
    "status": 0,
    "note": "Benalu Kiper 64m3 16.10.2020",
    "time": "27.09.2022 11:24",
    "location": "ŠENÈUR - JURÈIÈ & Co",
    "locationCountry": "SLO",
    "locationPost": "",
    "lon": 14.410472,
    "lat": 46.234505
  },
  {
    "groupId": 1,
    "id": 3820,
    "name": "KR 174-JTR",
    "code": "2258",
    "vehicleCode": "",
    "status": 0,
    "note": "Benalu Kiper 64m3, 16.10.2020",
    "time": "20.02.2024 11:06",
    "location": "ŠENÈUR - JURÈIÈ & Co (100 m S. from ) ",
    "locationCountry": "SLO",
    "locationPost": "",
    "lon": 14.410901,
    "lat": 46.233776
  },
  {
    "groupId": 1,
    "id": 3863,
    "name": "KR 176-JTR",
    "code": "225",
    "vehicleCode": "",
    "status": 0,
    "note": "Benalu Kiper 64m3  23.10.2020 ",
    "time": "12.02.2024 13:06",
    "location": "ŠENÈUR - JURÈIÈ & Co (100 m S.E. from ) ",
    "locationCountry": "SLO",
    "locationPost": "",
    "lon": 14.411244,
    "lat": 46.233818
  },
  {
    "groupId": 1,
    "id": 3869,
    "name": "KR 177-JTR",
    "code": "1227",
    "vehicleCode": "",
    "status": 0,
    "note": "Benalu Kiper 64m3   13.11.2020",
    "time": "14.10.2023 10:16",
    "location": "ŠENÈUR - JURÈIÈ & Co (100 m S. from ) ",
    "locationCountry": "SLO",
    "locationPost": "",
    "lon": 14.410729,
    "lat": 46.23399
  },
  {
    "groupId": 1,
    "id": 3871,
    "name": "KR 178-JTR",
    "code": "1229",
    "vehicleCode": "",
    "status": 0,
    "note": "Benalu Kiper 64m3",
    "time": "11.11.2022 08:49",
    "location": "ŠENÈUR - JURÈIÈ & Co (200 m S.E. from ) ",
    "locationCountry": "SLO",
    "locationPost": "",
    "lon": 14.41206,
    "lat": 46.233604
  },
  {
    "groupId": 1,
    "id": 3912,
    "name": "KR 179-JTR",
    "code": "222251",
    "vehicleCode": "",
    "status": 0,
    "note": "BENALU KIPER (64 M3) 17.11.2020",
    "time": "23.02.2024 13:52",
    "location": "ŠENÈUR - JURÈIÈ & Co (100 m S.E. from ) ",
    "locationCountry": "SLO",
    "locationPost": "",
    "lon": 14.411459,
    "lat": 46.233818
  },
  {
    "groupId": 1,
    "id": 3845,
    "name": "KR 181-JTR",
    "code": "2283",
    "vehicleCode": "",
    "status": 0,
    "note": "BENALU Kiper 64 M3   20.11.2020",
    "time": "20.10.2022 11:20",
    "location": "ŠENÈUR - JURÈIÈ & Co",
    "locationCountry": "SLO",
    "locationPost": "",
    "lon": 14.410729,
    "lat": 46.234848
  },
  {
    "groupId": 1,
    "id": 3828,
    "name": "KR 182-JTR",
    "code": "2266",
    "vehicleCode": "",
    "status": 0,
    "note": "Benalu 20.11.2020 20.11.2020",
    "time": "05.01.2024 12:15",
    "location": "ŠENÈUR - JURÈIÈ & Co (100 m S.E. from ) ",
    "locationCountry": "SLO",
    "locationPost": "",
    "lon": 14.411545,
    "lat": 46.234249
  },
  {
    "groupId": 1,
    "id": 3982,
    "name": "KR 183-JTR",
    "code": "222318",
    "vehicleCode": "",
    "status": 0,
    "note": "SCHMITZ VARIUS  \r\n19.04.2021",
    "time": "22.02.2024 17:01",
    "location": "ŠENÈUR - JURÈIÈ & Co",
    "locationCountry": "SLO",
    "locationPost": "",
    "lon": 14.410987,
    "lat": 46.234333
  },
  {
    "groupId": 1,
    "id": 3902,
    "name": "KR 184-JTR",
    "code": "222241",
    "vehicleCode": "",
    "status": 0,
    "note": "SCHMITZ MEGA 20.04.2021",
    "time": "23.02.2024 16:27",
    "location": "ŠENÈUR - JURÈIÈ & Co (100 m S.E. from ) ",
    "locationCountry": "SLO",
    "locationPost": "",
    "lon": 14.411802,
    "lat": 46.233906
  },
  {
    "groupId": 1,
    "id": 3901,
    "name": "KR 185-JTR",
    "code": "222240",
    "vehicleCode": "",
    "status": 0,
    "note": "SCHMITZ MEGA 20.04.2021",
    "time": "23.02.2024 10:13",
    "location": "ŠENÈUR - JURÈIÈ & Co (100 m S.E. from ) ",
    "locationCountry": "SLO",
    "locationPost": "",
    "lon": 14.411631,
    "lat": 46.234207
  },
  {
    "groupId": 1,
    "id": 3811,
    "name": "KR 186-JTR",
    "code": "2249",
    "vehicleCode": "",
    "status": 0,
    "note": "Krone tandem 22.09.2020",
    "time": "16.03.2021 11:12",
    "location": "A2/E61  / 4243 - Radovljica / Brezje / SLO",
    "locationCountry": "SLO",
    "locationPost": "4243",
    "lon": 14.2373,
    "lat": 46.321201
  },
  {
    "groupId": 1,
    "id": 3843,
    "name": "KR 187-JTR",
    "code": "2281",
    "vehicleCode": "",
    "status": 0,
    "note": "Schmitz Megaliner 03.11.2020",
    "time": "13.02.2024 06:32",
    "location": "Mittlerer Weg 2 / 76661 - Philippsburg / D (200 m from ) ",
    "locationCountry": "D",
    "locationPost": "76661",
    "lon": 8.470773,
    "lat": 49.223736
  },
  {
    "groupId": 1,
    "id": 3832,
    "name": "KR 188-JTR",
    "code": "2270",
    "vehicleCode": "",
    "status": 0,
    "note": "Schmitz Megaliner 03.11.2020",
    "time": "25.02.2024 22:05",
    "location": "210  / 4000 - Kranj / Orehek / SLO",
    "locationCountry": "SLO",
    "locationPost": "4000",
    "lon": 14.351545,
    "lat": 46.225452
  },
  {
    "groupId": 1,
    "id": 3823,
    "name": "KR 189-JTR",
    "code": "2261",
    "vehicleCode": "",
    "status": 0,
    "note": "Schmitz Megaliner 03.11.2020",
    "time": "26.02.2024 07:22",
    "location": "4000 - Kranj / Orehek / SLO",
    "locationCountry": "SLO",
    "locationPost": "4000",
    "lon": 14.349314,
    "lat": 46.225109
  },
  {
    "groupId": 1,
    "id": 3824,
    "name": "KR 190-JTR",
    "code": "2262",
    "vehicleCode": "KR JTR-021",
    "status": 1,
    "note": "Schmitz Megaliner 03.11.2020",
    "time": "27.02.2024 10:30",
    "location": "Aufeldgasse 66 / 3400 - Klosterneuburg / A",
    "locationCountry": "A",
    "locationPost": "3400",
    "lon": 16.340214,
    "lat": 48.290558
  },
  {
    "groupId": 1,
    "id": 3831,
    "name": "KR 191-JTR",
    "code": "2269",
    "vehicleCode": "",
    "status": 0,
    "note": "Schmitz Megaliner 03.11.2020",
    "time": "26.02.2024 12:44",
    "location": "4000 - Kranj / Orehek / SLO",
    "locationCountry": "SLO",
    "locationPost": "4000",
    "lon": 14.349357,
    "lat": 46.225109
  },
  {
    "groupId": 1,
    "id": 3829,
    "name": "KR 192-JTR",
    "code": "2267",
    "vehicleCode": "",
    "status": 0,
    "note": "Schmitz Megaliner 13.11.2020",
    "time": "03.10.2023 13:59",
    "location": "210  / 4000 - Kranj / Orehek / SLO",
    "locationCountry": "SLO",
    "locationPost": "4000",
    "lon": 14.350344,
    "lat": 46.225021
  },
  {
    "groupId": 1,
    "id": 3830,
    "name": "KR 193-JTR",
    "code": "2268",
    "vehicleCode": "KR JTR-101",
    "status": 1,
    "note": "Schmitz Megaliner 13.11.2020",
    "time": "27.02.2024 10:46",
    "location": "Brucker-Schnellstraße  / 8120 - Peggau / A",
    "locationCountry": "A",
    "locationPost": "8120",
    "lon": 15.340301,
    "lat": 47.212189
  },
  {
    "groupId": 1,
    "id": 3856,
    "name": "KR 194-JTR",
    "code": "2294",
    "vehicleCode": "KR JTR-061",
    "status": 1,
    "note": "SCHMITZ MEGA 13.11.2020\r\n\r\n",
    "time": "27.02.2024 10:25",
    "location": "KRANJ (500 m S.W. from ) ",
    "locationCountry": "SLO",
    "locationPost": "",
    "lon": 14.329871,
    "lat": 46.259483
  },
  {
    "groupId": 1,
    "id": 3825,
    "name": "KR 195-JTR",
    "code": "2263",
    "vehicleCode": "KR JTR-022",
    "status": 1,
    "note": "Schmitz Megaliner 13.11.2020",
    "time": "27.02.2024 10:45",
    "location": "La Languedocienne  / 34130 - Saint-Aunes / F",
    "locationCountry": "F",
    "locationPost": "34130",
    "lon": 3.96691,
    "lat": 43.629398
  },
  {
    "groupId": 1,
    "id": 3872,
    "name": "KR 196-JTR",
    "code": "231",
    "vehicleCode": "",
    "status": 0,
    "note": "Schmitz Megaliner 13.11.2020",
    "time": "23.02.2024 15:46",
    "location": "ŠENÈUR - JURÈIÈ & Co (100 m S.E. from ) ",
    "locationCountry": "SLO",
    "locationPost": "",
    "lon": 14.412103,
    "lat": 46.233906
  },
  {
    "groupId": 1,
    "id": 3827,
    "name": "KR 197-JTR",
    "code": "2265",
    "vehicleCode": "KR JTR-010",
    "status": 1,
    "note": "Schmitz Megaliner 27.11.2020",
    "time": "27.02.2024 10:47",
    "location": "37005 - Èeské Budìjovice / Èeské Budìjovice 2 / CZ",
    "locationCountry": "CZ",
    "locationPost": "37005",
    "lon": 14.461631,
    "lat": 48.987854
  },
  {
    "groupId": 1,
    "id": 3826,
    "name": "KR 198-JTR",
    "code": "2264",
    "vehicleCode": "",
    "status": 0,
    "note": "Schmitz Megaliner 27.11.2020\r\n",
    "time": "05.09.2023 10:46",
    "location": "Industriestraße 30 / 63517 - Rodenbach / D (100 m from ) ",
    "locationCountry": "D",
    "locationPost": "63517",
    "lon": 9.005279,
    "lat": 50.146351
  },
  {
    "groupId": 1,
    "id": 3883,
    "name": "KR 200-JTR",
    "code": "222225",
    "vehicleCode": "",
    "status": 0,
    "note": "Schmitz Megaliner 27.11.2020",
    "time": "22.05.2023 13:21",
    "location": "Spodnje Škofije  / 6281 - Koper / SLO",
    "locationCountry": "SLO",
    "locationPost": "6281",
    "lon": 13.795579,
    "lat": 45.57618
  },
  {
    "groupId": 1,
    "id": 3857,
    "name": "KR 205-JTR",
    "code": "2295",
    "vehicleCode": "",
    "status": 0,
    "note": "SCHMITZ MEGA 27.11.2020\r\n\r\njaviti prikolico\r\n\r\nTRAILER ID 1-Wire 1A00001C3D25E001",
    "time": "25.06.2023 15:28",
    "location": "2320 - Schwechat / Kledering / A",
    "locationCountry": "A",
    "locationPost": "2320",
    "lon": 16.437038,
    "lat": 48.122105
  },
  {
    "groupId": 1,
    "id": 3873,
    "name": "KR 207-JTR",
    "code": "1232",
    "vehicleCode": "",
    "status": 0,
    "note": "Knapen Wallkingfloor 13.02.2020",
    "time": "27.02.2024 10:46",
    "location": "E45  / 80939 - München / Auensiedlung / D",
    "locationCountry": "D",
    "locationPost": "80939",
    "lon": 11.632318,
    "lat": 48.220901
  },
  {
    "groupId": 1,
    "id": 3876,
    "name": "KR 208-JTR",
    "code": "1234",
    "vehicleCode": "",
    "status": 0,
    "note": "Knapen Wallkingfloor 13.02.2021\r\n",
    "time": "23.02.2024 11:37",
    "location": "ŠENÈUR - JURÈIÈ & Co",
    "locationCountry": "SLO",
    "locationPost": "",
    "lon": 14.410987,
    "lat": 46.234333
  },
  {
    "groupId": 1,
    "id": 3946,
    "name": "KR 209-JTR",
    "code": "222282",
    "vehicleCode": "",
    "status": 0,
    "note": "WF KNAPEN 13.02.2021",
    "time": "20.02.2024 15:09",
    "location": "ŠENÈUR - JURÈIÈ & Co (100 m N.W. from ) ",
    "locationCountry": "SLO",
    "locationPost": "",
    "lon": 14.410214,
    "lat": 46.234894
  },
  {
    "groupId": 1,
    "id": 3879,
    "name": "KR 210-JTR",
    "code": "2308",
    "vehicleCode": "",
    "status": 0,
    "note": "WF Knapen 25.02.2021\r\n\r\nTRAILER ID 1-Wire 4500001C3C6F6201",
    "time": "23.02.2024 09:03",
    "location": "ŠENÈUR - JURÈIÈ & Co (100 m W. from ) ",
    "locationCountry": "SLO",
    "locationPost": "",
    "lon": 14.409571,
    "lat": 46.234333
  },
  {
    "groupId": 1,
    "id": 3881,
    "name": "KR 211-JTR",
    "code": "222223",
    "vehicleCode": "",
    "status": 0,
    "note": "WF Knapen  25.02.2021",
    "time": "22.02.2024 16:38",
    "location": "ŠENÈUR - JURÈIÈ & Co (100 m W. from ) ",
    "locationCountry": "SLO",
    "locationPost": "",
    "lon": 14.409871,
    "lat": 46.234592
  },
  {
    "groupId": 1,
    "id": 3903,
    "name": "KR 212-JTR",
    "code": "222242",
    "vehicleCode": "",
    "status": 0,
    "note": "WF Knapen  22.03.2021",
    "time": "26.02.2024 12:00",
    "location": "ŠENÈUR - JURÈIÈ & Co (100 m W. from ) ",
    "locationCountry": "SLO",
    "locationPost": "",
    "lon": 14.409914,
    "lat": 46.234379
  },
  {
    "groupId": 1,
    "id": 3884,
    "name": "KR 213-JTR",
    "code": "222226",
    "vehicleCode": "",
    "status": 0,
    "note": "KNAPEN WF   26.03.2021",
    "time": "26.02.2024 15:38",
    "location": "4000 - Kranj / Orehek / SLO",
    "locationCountry": "SLO",
    "locationPost": "4000",
    "lon": 14.350043,
    "lat": 46.225109
  },
  {
    "groupId": 1,
    "id": 3887,
    "name": "KR 214-JTR",
    "code": "222227",
    "vehicleCode": "",
    "status": 0,
    "note": "Knapen WF 26.03.2021",
    "time": "14.02.2024 18:18",
    "location": "ŠENÈUR - JURÈIÈ & Co",
    "locationCountry": "SLO",
    "locationPost": "",
    "lon": 14.410815,
    "lat": 46.234421
  },
  {
    "groupId": 1,
    "id": 3979,
    "name": "KR 215-JTR",
    "code": "222315",
    "vehicleCode": "KR JTR-095",
    "status": 1,
    "note": "KNAPEN WF, 94M3\r\n 07.12.2021",
    "time": "27.02.2024 10:47",
    "location": "West-Autobahn  / 4655 - Vorchdorf / A",
    "locationCountry": "A",
    "locationPost": "4655",
    "lon": 13.878326,
    "lat": 48.00309
  },
  {
    "groupId": 1,
    "id": 3895,
    "name": "KR 216-JTR",
    "code": "222234",
    "vehicleCode": "KR JTR-103",
    "status": 1,
    "note": "KNAPEN\r\n2021\r\nWALKINGFLOOR",
    "time": "27.02.2024 10:46",
    "location": "A81/E41  / 78224 - Singen / Schlatt unter Krähen / D",
    "locationCountry": "D",
    "locationPost": "78224",
    "lon": 8.83794,
    "lat": 47.822231
  },
  {
    "groupId": 1,
    "id": 4015,
    "name": "KR 217-JTR",
    "code": "855621",
    "vehicleCode": "KR JTR-110",
    "status": 1,
    "note": "STAS WALKINGFLOOR 26.05.2023",
    "time": "27.02.2024 10:01",
    "location": "A2/E59  / Zabok / Gubaševo / HR (200 m from ) ",
    "locationCountry": "HR",
    "locationPost": "",
    "lon": 15.869699,
    "lat": 46.006439
  },
  {
    "groupId": 1,
    "id": 3909,
    "name": "KR 218-JTR",
    "code": "222248",
    "vehicleCode": "KR JTR-055",
    "status": 1,
    "note": "WF - KNAPEN 05.07.2021",
    "time": "27.02.2024 10:45",
    "location": "TUZLA ( (4,1 km N.W. from ) ) ",
    "locationCountry": "BIH",
    "locationPost": "",
    "lon": 18.529613,
    "lat": 44.525879
  },
  {
    "groupId": 1,
    "id": 4018,
    "name": "KR 219-JTR",
    "code": "855624",
    "vehicleCode": "",
    "status": 0,
    "note": "STAS WF   25.05.2023 94M3\r\n",
    "time": "16.02.2024 13:15",
    "location": "ŠENÈUR - JURÈIÈ & Co (100 m S.E. from ) ",
    "locationCountry": "SLO",
    "locationPost": "",
    "lon": 14.412189,
    "lat": 46.233906
  },
  {
    "groupId": 1,
    "id": 4017,
    "name": "KR 220-JTR",
    "code": "855623",
    "vehicleCode": "",
    "status": 0,
    "note": "WF STAS  25.05.2023   94M3",
    "time": "26.02.2024 16:00",
    "location": "4000 - Kranj / Orehek / SLO",
    "locationCountry": "SLO",
    "locationPost": "4000",
    "lon": 14.349915,
    "lat": 46.224892
  },
  {
    "groupId": 1,
    "id": 3922,
    "name": "KR 221-JTR",
    "code": "3333",
    "vehicleCode": "",
    "status": 0,
    "note": "KNAPEN WF 15.09.2021",
    "time": "22.02.2024 15:14",
    "location": "ŠENÈUR - JURÈIÈ & Co (100 m S.E. from ) ",
    "locationCountry": "SLO",
    "locationPost": "",
    "lon": 14.411201,
    "lat": 46.234249
  },
  {
    "groupId": 1,
    "id": 3943,
    "name": "KR 222-JTR",
    "code": "222279",
    "vehicleCode": "",
    "status": 0,
    "note": "KNAPEN WF 08.10.2021",
    "time": "14.02.2024 18:10",
    "location": "ŠENÈUR - JURÈIÈ & Co",
    "locationCountry": "SLO",
    "locationPost": "",
    "lon": 14.410987,
    "lat": 46.234379
  },
  {
    "groupId": 1,
    "id": 4016,
    "name": "KR 223-JTR",
    "code": "855622",
    "vehicleCode": "KR JTR-077",
    "status": 1,
    "note": "STAS WF 94M3   25.05.2023 Š.Š. 78214",
    "time": "27.02.2024 10:47",
    "location": "A8/E52  / 73230 - Kirchheim unter Teck / Lindorf / D",
    "locationCountry": "D",
    "locationPost": "73230",
    "lon": 9.407382,
    "lat": 48.651287
  },
  {
    "groupId": 1,
    "id": 3934,
    "name": "KR 224-JTR",
    "code": "222270",
    "vehicleCode": "KR JTR-062",
    "status": 1,
    "note": "Walkigfloor KNAPEN 16.03.2022 š.s.: 80819\r\n",
    "time": "27.02.2024 10:00",
    "location": "Avenue de la Condamine  / 26000 - Valence / F",
    "locationCountry": "F",
    "locationPost": "26000",
    "lon": 4.866652,
    "lat": 44.902275
  },
  {
    "groupId": 1,
    "id": 3939,
    "name": "KR 225-JTR",
    "code": "222275",
    "vehicleCode": "",
    "status": 0,
    "note": "KNAPEN 14.02.2022",
    "time": "26.02.2024 04:16",
    "location": "15070 - Belforte Monferrato / Santo Criste / I",
    "locationCountry": "I",
    "locationPost": "15070",
    "lon": 8.664636,
    "lat": 44.592361
  },
  {
    "groupId": 1,
    "id": 4021,
    "name": "KR 226-JTR",
    "code": "855627",
    "vehicleCode": "KR JTR-075",
    "status": 1,
    "note": "STAS WF,  08.06.2023",
    "time": "27.02.2024 10:47",
    "location": "A99/E45/E52  / 85774 - Unterföhring / D",
    "locationCountry": "D",
    "locationPost": "85774",
    "lon": 11.685708,
    "lat": 48.194462
  },
  {
    "groupId": 1,
    "id": 3957,
    "name": "KR 227-JTR",
    "code": "222293",
    "vehicleCode": "",
    "status": 0,
    "note": "KNAPEN WF 94M3   16.03.2022",
    "time": "16.02.2024 09:53",
    "location": "ŠENÈUR - JURÈIÈ & Co",
    "locationCountry": "SLO",
    "locationPost": "",
    "lon": 14.410901,
    "lat": 46.234291
  },
  {
    "groupId": 1,
    "id": 3933,
    "name": "KR 228-JTR",
    "code": "222269",
    "vehicleCode": "",
    "status": 0,
    "note": "WF KNAPEN 16.03.2022  Š.S.:80809",
    "time": "11.11.2023 11:32",
    "location": "ŠENÈUR - JURÈIÈ & Co (100 m E. from ) ",
    "locationCountry": "SLO",
    "locationPost": "",
    "lon": 14.412189,
    "lat": 46.234207
  },
  {
    "groupId": 1,
    "id": 3935,
    "name": "KR 229-JTR",
    "code": "222271",
    "vehicleCode": "",
    "status": 0,
    "note": "WF KNAPEN 24.03.2022 Š.S.: 80806",
    "time": "07.11.2023 02:00",
    "location": "ŠENÈUR - JURÈIÈ & Co (100 m W. from ) ",
    "locationCountry": "SLO",
    "locationPost": "",
    "lon": 14.409399,
    "lat": 46.234333
  },
  {
    "groupId": 1,
    "id": 4020,
    "name": "KR 230-JTR",
    "code": "855626",
    "vehicleCode": "",
    "status": 0,
    "note": "STAS WF 94M3\r\n 08.06.2023 Š.Š: 78216\r\n",
    "time": "16.02.2024 14:03",
    "location": "ŠENÈUR - JURÈIÈ & Co (100 m S.E. from ) ",
    "locationCountry": "SLO",
    "locationPost": "",
    "lon": 14.411116,
    "lat": 46.233906
  },
  {
    "groupId": 1,
    "id": 4019,
    "name": "KR 231-JTR",
    "code": "855625",
    "vehicleCode": "KR JTR-059",
    "status": 1,
    "note": "STAS WALKINGFLOOR 2023",
    "time": "27.02.2024 10:46",
    "location": "Diramazione Predosa-Bettole  / 15064 - Fresonara / I",
    "locationCountry": "I",
    "locationPost": "15064",
    "lon": 8.666781,
    "lat": 44.771759
  },
  {
    "groupId": 1,
    "id": 4027,
    "name": "KR 232-JTR",
    "code": "855633",
    "vehicleCode": "",
    "status": 0,
    "note": "BENALU 50 M3\r\n2021",
    "time": "04.12.2023 09:10",
    "location": "ŠENÈUR - JURÈIÈ & Co (100 m S.E. from ) ",
    "locationCountry": "SLO",
    "locationPost": "",
    "lon": 14.411459,
    "lat": 46.23399
  },
  {
    "groupId": 1,
    "id": 3927,
    "name": "KR 234 - JTR",
    "code": "222263",
    "vehicleCode": "",
    "status": 0,
    "note": "BENALU Kiper 50m3 19.02.2021",
    "time": "18.01.2023 16:29",
    "location": "ŠENÈUR - JURÈIÈ & Co (100 m S.E. from ) ",
    "locationCountry": "SLO",
    "locationPost": "",
    "lon": 14.410987,
    "lat": 46.233906
  },
  {
    "groupId": 1,
    "id": 3894,
    "name": "KR 234-JTR",
    "code": "445",
    "vehicleCode": "",
    "status": 0,
    "note": "Kiper Benalu 50 m3 19.03.2021",
    "time": "",
    "location": "",
    "locationCountry": "",
    "locationPost": "",
    "lon": 0.0,
    "lat": 0.0
  },
  {
    "groupId": 1,
    "id": 3920,
    "name": "KR 235-JTR",
    "code": "222259",
    "vehicleCode": "",
    "status": 0,
    "note": "BENALU 50M3\r\n19.02.2021",
    "time": "15.09.2022 18:07",
    "location": "ŠENÈUR - JURÈIÈ & Co (200 m W. from ) ",
    "locationCountry": "SLO",
    "locationPost": "",
    "lon": 14.408584,
    "lat": 46.234936
  },
  {
    "groupId": 1,
    "id": 3918,
    "name": "KR 236-JTR",
    "code": "222257",
    "vehicleCode": "",
    "status": 0,
    "note": "Kiper Benalu 50m3\r\n31.03.2021",
    "time": "05.04.2023 10:17",
    "location": "ŠENÈUR - JURÈIÈ & Co (100 m S.E. from ) ",
    "locationCountry": "SLO",
    "locationPost": "",
    "lon": 14.411073,
    "lat": 46.233864
  },
  {
    "groupId": 1,
    "id": 3926,
    "name": "KR 237-JTR",
    "code": "222262",
    "vehicleCode": "",
    "status": 0,
    "note": "BENALU 50(M3) 31.03.2021",
    "time": "15.07.2022 12:35",
    "location": "ŠENÈUR - JURÈIÈ & Co (100 m S.E. from ) ",
    "locationCountry": "SLO",
    "locationPost": "",
    "lon": 14.41103,
    "lat": 46.234119
  },
  {
    "groupId": 1,
    "id": 3919,
    "name": "KR 238-JTR",
    "code": "222258",
    "vehicleCode": "",
    "status": 0,
    "note": "BENALU  55 M3\r\n15.04.2021",
    "time": "28.06.2023 12:27",
    "location": "ŠENÈUR - JURÈIÈ & Co (100 m S. from ) ",
    "locationCountry": "SLO",
    "locationPost": "",
    "lon": 14.41103,
    "lat": 46.233818
  },
  {
    "groupId": 1,
    "id": 3921,
    "name": "KR 239-JTR",
    "code": "222260",
    "vehicleCode": "",
    "status": 0,
    "note": "BENALU 50(M3) 25.05.2021",
    "time": "02.08.2023 17:30",
    "location": "ŠENÈUR - JURÈIÈ & Co (100 m S.E. from ) ",
    "locationCountry": "SLO",
    "locationPost": "",
    "lon": 14.41206,
    "lat": 46.233906
  },
  {
    "groupId": 1,
    "id": 4022,
    "name": "KR 241-JTR",
    "code": "855628",
    "vehicleCode": "",
    "status": 0,
    "note": "STAS WF 94M3   19.06.2023 Š.Š. 78217\r\n",
    "time": "23.02.2024 14:19",
    "location": "4000 - Kranj / Orehek / SLO",
    "locationCountry": "SLO",
    "locationPost": "4000",
    "lon": 14.349614,
    "lat": 46.225193
  },
  {
    "groupId": 1,
    "id": 3928,
    "name": "KR 242-JTR",
    "code": "222264",
    "vehicleCode": "",
    "status": 0,
    "note": "BENALU KIper 03.05.2021",
    "time": "24.04.2023 12:48",
    "location": "ŠENÈUR - JURÈIÈ & Co (100 m S. from ) ",
    "locationCountry": "SLO",
    "locationPost": "",
    "lon": 14.410901,
    "lat": 46.233818
  },
  {
    "groupId": 1,
    "id": 3915,
    "name": "KR 243-JTR",
    "code": "222254",
    "vehicleCode": "",
    "status": 0,
    "note": "BENALU (50 M3) 12.05.2021",
    "time": "12.01.2024 11:26",
    "location": "ŠENÈUR - JURÈIÈ & Co (100 m S.E. from ) ",
    "locationCountry": "SLO",
    "locationPost": "",
    "lon": 14.411545,
    "lat": 46.233734
  },
  {
    "groupId": 1,
    "id": 3998,
    "name": "KR 244-JTR",
    "code": "222334",
    "vehicleCode": "",
    "status": 0,
    "note": "",
    "time": "26.06.2023 14:27",
    "location": "ŠENÈUR - JURÈIÈ & Co (100 m S. from ) ",
    "locationCountry": "SLO",
    "locationPost": "",
    "lon": 14.410815,
    "lat": 46.23399
  },
  {
    "groupId": 1,
    "id": 4024,
    "name": "KR 246-JTR",
    "code": "855630",
    "vehicleCode": "",
    "status": 0,
    "note": "STAS WF 94M3   19.06.2023 Š.Š. 78219",
    "time": "02.02.2024 16:49",
    "location": "ŠENÈUR - JURÈIÈ & Co (100 m S.E. from ) ",
    "locationCountry": "SLO",
    "locationPost": "",
    "lon": 14.411888,
    "lat": 46.233948
  },
  {
    "groupId": 1,
    "id": 4025,
    "name": "KR 247-JTR",
    "code": "855631",
    "vehicleCode": "",
    "status": 0,
    "note": "WF STAS (94 M3) Š.Š. 78222",
    "time": "19.02.2024 14:33",
    "location": "ŠENÈUR - JURÈIÈ & Co (100 m E. from ) ",
    "locationCountry": "SLO",
    "locationPost": "",
    "lon": 14.411416,
    "lat": 46.234291
  },
  {
    "groupId": 1,
    "id": 4026,
    "name": "KR 249-JTR",
    "code": "855632",
    "vehicleCode": "",
    "status": 0,
    "note": "STAS WF 94M3   21.08.2023 Š.Š. 78220",
    "time": "22.02.2024 17:23",
    "location": "ŠENÈUR - JURÈIÈ & Co (100 m E. from ) ",
    "locationCountry": "SLO",
    "locationPost": "",
    "lon": 14.411416,
    "lat": 46.234291
  },
  {
    "groupId": 1,
    "id": 4029,
    "name": "KR 250-JTR",
    "code": "855635",
    "vehicleCode": "",
    "status": 0,
    "note": "STAS WF 94M3\r\n 21.08.2023 Š.Š: 78221",
    "time": "26.02.2024 14:18",
    "location": "210  / 4000 - Kranj / Orehek / SLO",
    "locationCountry": "SLO",
    "locationPost": "4000",
    "lon": 14.349228,
    "lat": 46.224808
  },
  {
    "groupId": 1,
    "id": 4028,
    "name": "KR 251-JTR",
    "code": "855634",
    "vehicleCode": "",
    "status": 0,
    "note": "WF STAS \r\n21.08.2023  Š.Š.78225",
    "time": "10.02.2024 10:26",
    "location": "ŠENÈUR - JURÈIÈ & Co (100 m S.E. from ) ",
    "locationCountry": "SLO",
    "locationPost": "",
    "lon": 14.411459,
    "lat": 46.233948
  },
  {
    "groupId": 1,
    "id": 4030,
    "name": "KR 252-JTR",
    "code": "855636",
    "vehicleCode": "",
    "status": 0,
    "note": "STAS WF 94M3 25.08.2023\r\n",
    "time": "24.02.2024 08:39",
    "location": "210  / 4000 - Kranj / Orehek / SLO",
    "locationCountry": "SLO",
    "locationPost": "4000",
    "lon": 14.349485,
    "lat": 46.224892
  },
  {
    "groupId": 1,
    "id": 4031,
    "name": "KR 254-JTR",
    "code": "855637",
    "vehicleCode": "",
    "status": 0,
    "note": "STAS 2023 WALKIGNFLOOR",
    "time": "14.02.2024 12:04",
    "location": "ŠENÈUR - JURÈIÈ & Co",
    "locationCountry": "SLO",
    "locationPost": "",
    "lon": 14.4103,
    "lat": 46.234379
  },
  {
    "groupId": 1,
    "id": 3978,
    "name": "KR 262-JTR",
    "code": "222314",
    "vehicleCode": "KR JTR-099",
    "status": 1,
    "note": "SCHMITZ MEGA VARIUS 20.04.2021",
    "time": "27.02.2024 10:47",
    "location": "MARIBOR - SUROVINA (500 m S.W. from ) ",
    "locationCountry": "SLO",
    "locationPost": "",
    "lon": 15.652962,
    "lat": 46.525921
  },
  {
    "groupId": 1,
    "id": 3899,
    "name": "KR 263-JTR",
    "code": "222238",
    "vehicleCode": "KR JTR-048",
    "status": 1,
    "note": "SCHMITZ MEGA 20.04.2021",
    "time": "27.02.2024 10:45",
    "location": "A3/E42  / 60549 - Frankfurt am Main / Flughafen / D",
    "locationCountry": "D",
    "locationPost": "60549",
    "lon": 8.540129,
    "lat": 50.044979
  },
  {
    "groupId": 1,
    "id": 3925,
    "name": "KR 264-JTR",
    "code": "222261",
    "vehicleCode": "KR JTR-039",
    "status": 1,
    "note": "SCHMITZ MEGALINER 22.04.2021",
    "time": "27.02.2024 10:45",
    "location": "B169  / 04720 - Großweitzschen / Gadewitz / D",
    "locationCountry": "D",
    "locationPost": "04720",
    "lon": 13.123991,
    "lat": 51.15794
  },
  {
    "groupId": 1,
    "id": 3904,
    "name": "KR 265-JTR",
    "code": "222243",
    "vehicleCode": "",
    "status": 0,
    "note": "SCHMITZ MEGA 22.04.2021",
    "time": "27.02.2024 09:43",
    "location": "4000 - Kranj / Orehek / SLO",
    "locationCountry": "SLO",
    "locationPost": "4000",
    "lon": 14.35176,
    "lat": 46.22575
  },
  {
    "groupId": 1,
    "id": 3900,
    "name": "KR 266-JTR",
    "code": "222239",
    "vehicleCode": "KR JTR-064",
    "status": 1,
    "note": "SCHMITZ MEGA 22.04.2021",
    "time": "27.02.2024 10:45",
    "location": "A9/E49/E51  / 07819 - Tömmelsdorf / Wüstenwetzdorf / D",
    "locationCountry": "D",
    "locationPost": "07819",
    "lon": 11.849614,
    "lat": 50.705879
  },
  {
    "groupId": 1,
    "id": 3905,
    "name": "KR 267-JTR",
    "code": "222244",
    "vehicleCode": "KR JTR-034",
    "status": 1,
    "note": "SCHMITZ MEGA 03.05.2021",
    "time": "27.02.2024 10:45",
    "location": "Tauern-Autobahn  / 9521 - Treffen am Ossiacher See / A",
    "locationCountry": "A",
    "locationPost": "9521",
    "lon": 13.869485,
    "lat": 46.651203
  },
  {
    "groupId": 1,
    "id": 3942,
    "name": "KR 268-JTR",
    "code": "222278",
    "vehicleCode": "KR JTR-074",
    "status": 1,
    "note": "SCHMITZ Varius 13.05.2022",
    "time": "27.02.2024 10:47",
    "location": "A2/E61  / 4202 - Naklo / Strahinj / SLO",
    "locationCountry": "SLO",
    "locationPost": "4202",
    "lon": 14.309271,
    "lat": 46.277985
  },
  {
    "groupId": 1,
    "id": 3906,
    "name": "KR 269-JTR",
    "code": "222245",
    "vehicleCode": "KR JTR-084",
    "status": 1,
    "note": "SCHMITZ MEGA 24.06.2021",
    "time": "27.02.2024 10:47",
    "location": "ŠKOFJA LOKA (800 m W. from ) ",
    "locationCountry": "SLO",
    "locationPost": "",
    "lon": 14.326266,
    "lat": 46.173607
  },
  {
    "groupId": 1,
    "id": 3924,
    "name": "KR 270-JTR",
    "code": "3335",
    "vehicleCode": "",
    "status": 0,
    "note": "SCHMITZ MEGALINER 24.06.2021",
    "time": "19.02.2024 10:18",
    "location": "ŠENÈUR - JURÈIÈ & Co (100 m W. from ) ",
    "locationCountry": "SLO",
    "locationPost": "",
    "lon": 14.409742,
    "lat": 46.234379
  },
  {
    "groupId": 1,
    "id": 3980,
    "name": "KR 271-JTR",
    "code": "222316",
    "vehicleCode": "KR JTR-047",
    "status": 1,
    "note": "SCHMITZ Varius 24.06.2021",
    "time": "27.02.2024 10:47",
    "location": "Autopista del Mediterrani  / 17706 - Pont de Molins / E",
    "locationCountry": "E",
    "locationPost": "17706",
    "lon": 2.937983,
    "lat": 42.325279
  },
  {
    "groupId": 1,
    "id": 3911,
    "name": "KR 272-JTR",
    "code": "222250",
    "vehicleCode": "KR JTR-082",
    "status": 1,
    "note": "Schmitz Megaliner 24.06.2021",
    "time": "27.02.2024 10:47",
    "location": "Autostrada Adriatica  / 70056 - Molfetta / I",
    "locationCountry": "I",
    "locationPost": "70056",
    "lon": 16.541845,
    "lat": 41.182018
  },
  {
    "groupId": 1,
    "id": 3908,
    "name": "KR 273-JTR",
    "code": "222247",
    "vehicleCode": "",
    "status": 0,
    "note": "Schmitz Megaliner 30.06.2021",
    "time": "04.09.2023 12:23",
    "location": "210  / 4000 - Kranj / Orehek / SLO",
    "locationCountry": "SLO",
    "locationPost": "4000",
    "lon": 14.350687,
    "lat": 46.225193
  },
  {
    "groupId": 1,
    "id": 3990,
    "name": "KR 274-JTR",
    "code": "222326",
    "vehicleCode": "KR JTR-037",
    "status": 1,
    "note": "Schmitz Megaliner 30.06.2021",
    "time": "27.02.2024 10:47",
    "location": "Mitscherlichstraße  / 79108 - Freiburg im Breisgau / D",
    "locationCountry": "D",
    "locationPost": "79108",
    "lon": 7.848627,
    "lat": 48.033432
  },
  {
    "groupId": 1,
    "id": 3999,
    "name": "KR 275-JTR",
    "code": "855612",
    "vehicleCode": "",
    "status": 0,
    "note": "SCHMITZ VARIOS\r\n2021",
    "time": "26.02.2024 13:01",
    "location": "ŠENÈUR - JURÈIÈ & Co",
    "locationCountry": "SLO",
    "locationPost": "",
    "lon": 14.410858,
    "lat": 46.234333
  },
  {
    "groupId": 1,
    "id": 3913,
    "name": "KR 276-JTR",
    "code": "222252",
    "vehicleCode": "KR BF-647",
    "status": 1,
    "note": "Schmitz Megaliner\r\nRegistracija 09.07.2021",
    "time": "27.02.2024 10:00",
    "location": "Josipa Lonèara 3 / 10000 - Zagreb / Stenjevec / HR",
    "locationCountry": "HR",
    "locationPost": "10000",
    "lon": 15.868755,
    "lat": 45.80854
  },
  {
    "groupId": 1,
    "id": 3977,
    "name": "KR 277-JTR",
    "code": "222313",
    "vehicleCode": "",
    "status": 0,
    "note": "",
    "time": "23.01.2024 08:06",
    "location": "Mittlerer Weg  / 76661 - Philippsburg / D",
    "locationCountry": "D",
    "locationPost": "76661",
    "lon": 8.472833,
    "lat": 49.226395
  },
  {
    "groupId": 1,
    "id": 3914,
    "name": "KR 278-JTR",
    "code": "222253",
    "vehicleCode": "KR JTR-042",
    "status": 1,
    "note": "Schmitz Megaliner\r\nDat. registracije 09.07.2021",
    "time": "27.02.2024 10:21",
    "location": "Zone II  / 9111 - Völkermarkt / A",
    "locationCountry": "A",
    "locationPost": "9111",
    "lon": 14.671159,
    "lat": 46.680214
  },
  {
    "groupId": 1,
    "id": 3929,
    "name": "KR 279-JTR",
    "code": "222265",
    "vehicleCode": "",
    "status": 0,
    "note": "KRONE 17.01.2022 Megaliner\r\n",
    "time": "22.02.2024 16:09",
    "location": "Mittlerer Weg 2 / 76661 - Philippsburg / D (100 m from ) ",
    "locationCountry": "D",
    "locationPost": "76661",
    "lon": 8.471159,
    "lat": 49.223003
  },
  {
    "groupId": 1,
    "id": 3930,
    "name": "KR 280-JTR",
    "code": "222266",
    "vehicleCode": "KR JTR-108",
    "status": 1,
    "note": "KRONE 17.01.2022 Megaliner\r\n",
    "time": "27.02.2024 10:00",
    "location": "Panzendorf 10 / 9920 - Heinfels / A",
    "locationCountry": "A",
    "locationPost": "9920",
    "lon": 12.436781,
    "lat": 46.753906
  },
  {
    "groupId": 1,
    "id": 3950,
    "name": "KR 282-JTR",
    "code": "222286",
    "vehicleCode": "",
    "status": 0,
    "note": "",
    "time": "07.02.2024 12:54",
    "location": "ŠENÈUR - JURÈIÈ & Co",
    "locationCountry": "SLO",
    "locationPost": "",
    "lon": 14.410214,
    "lat": 46.234505
  },
  {
    "groupId": 1,
    "id": 3947,
    "name": "KR 283-JTR",
    "code": "222283",
    "vehicleCode": "KR JTR-097",
    "status": 1,
    "note": "BENALU KIPER 64M3, 19.01.2022\r\n",
    "time": "27.02.2024 10:47",
    "location": "Tauern-Autobahn  / 9853 - Gmünd in Kärnten / A",
    "locationCountry": "A",
    "locationPost": "9853",
    "lon": 13.543605,
    "lat": 46.905151
  },
  {
    "groupId": 1,
    "id": 3949,
    "name": "KR 284-JTR",
    "code": "222285",
    "vehicleCode": "KR JTR-006",
    "status": 1,
    "note": "BENALU kiper  64m3\r\n19.01.2022",
    "time": "27.02.2024 10:37",
    "location": "ŠENÈUR - JURÈIÈ & Co",
    "locationCountry": "SLO",
    "locationPost": "",
    "lon": 14.410858,
    "lat": 46.234848
  },
  {
    "groupId": 1,
    "id": 3937,
    "name": "KR 285-JTR",
    "code": "222273",
    "vehicleCode": "",
    "status": 0,
    "note": "BENALU KIPER 64M3 19.01.2022\r\n",
    "time": "31.01.2024 15:34",
    "location": "ŠENÈUR - JURÈIÈ & Co",
    "locationCountry": "SLO",
    "locationPost": "",
    "lon": 14.410944,
    "lat": 46.234207
  },
  {
    "groupId": 1,
    "id": 3948,
    "name": "KR 286-JTR",
    "code": "222284",
    "vehicleCode": "",
    "status": 0,
    "note": "BENALU KIPER 64M3  07.02.2022\r\n",
    "time": "11.08.2023 11:39",
    "location": "ŠENÈUR - JURÈIÈ & Co (100 m S. from ) ",
    "locationCountry": "SLO",
    "locationPost": "",
    "lon": 14.410686,
    "lat": 46.233906
  },
  {
    "groupId": 1,
    "id": 3964,
    "name": "KR 288-JTR",
    "code": "222300",
    "vehicleCode": "",
    "status": 0,
    "note": "BENALU KIPER 64 M3 7.2.2022",
    "time": "21.02.2024 15:35",
    "location": "ŠENÈUR - JURÈIÈ & Co (100 m E. from ) ",
    "locationCountry": "SLO",
    "locationPost": "",
    "lon": 14.411674,
    "lat": 46.234291
  },
  {
    "groupId": 1,
    "id": 3966,
    "name": "KR 289-JTR",
    "code": "222302",
    "vehicleCode": "",
    "status": 0,
    "note": "BENALU KIPER 64 M3 7.2.2022",
    "time": "12.02.2024 16:19",
    "location": "ŠENÈUR - JURÈIÈ & Co (100 m S.E. from ) ",
    "locationCountry": "SLO",
    "locationPost": "",
    "lon": 14.410987,
    "lat": 46.234077
  },
  {
    "groupId": 1,
    "id": 3945,
    "name": "KR 290-JTR",
    "code": "222281",
    "vehicleCode": "KR JTR-102",
    "status": 1,
    "note": "KIPER 64 M3 BENALU 07.02.2022",
    "time": "27.02.2024 10:47",
    "location": "205/24  / Zabok / Pavlovec Zaboèki / HR (200 m from ) ",
    "locationCountry": "HR",
    "locationPost": "",
    "lon": 15.875065,
    "lat": 46.008068
  },
  {
    "groupId": 1,
    "id": 4010,
    "name": "KR 291-JTR",
    "code": "855619",
    "vehicleCode": "KR JTR-088",
    "status": 1,
    "note": "BENALU 2022, 64 M3",
    "time": "27.02.2024 10:45",
    "location": "A4/E40  / 09661 - Striegistal / Schmalbach / D",
    "locationCountry": "D",
    "locationPost": "09661",
    "lon": 13.239227,
    "lat": 51.011158
  },
  {
    "groupId": 1,
    "id": 4023,
    "name": "KR 294-JTR",
    "code": "855629",
    "vehicleCode": "",
    "status": 0,
    "note": "BENALU KIPER 64M3 16.02.2022",
    "time": "20.02.2024 11:18",
    "location": "Schmiedstraße  / 83607 - Holzkirchen / D",
    "locationCountry": "D",
    "locationPost": "83607",
    "lon": 11.71764,
    "lat": 47.905365
  },
  {
    "groupId": 1,
    "id": 3969,
    "name": "KR 295-JTR",
    "code": "222305",
    "vehicleCode": "KR JTR-025",
    "status": 1,
    "note": "BENALU KIPER 64M3 16.02.2022",
    "time": "27.02.2024 10:47",
    "location": "93109 - Wiesent / D",
    "locationCountry": "D",
    "locationPost": "93109",
    "lon": 12.364635,
    "lat": 49.001415
  },
  {
    "groupId": 1,
    "id": 3991,
    "name": "KR 297-JTR",
    "code": "222327",
    "vehicleCode": "",
    "status": 0,
    "note": "BENALU KIPPER 64M3      \r\n 01.03.2022",
    "time": "15.02.2024 14:07",
    "location": "ŠENÈUR - JURÈIÈ & Co (100 m S.E. from ) ",
    "locationCountry": "SLO",
    "locationPost": "",
    "lon": 14.41103,
    "lat": 46.233864
  },
  {
    "groupId": 1,
    "id": 3971,
    "name": "KR 298-JTR",
    "code": "222307",
    "vehicleCode": "KR JTR-083",
    "status": 1,
    "note": "BENALU KIPER 64 M 01.03.2022",
    "time": "27.02.2024 10:45",
    "location": "Andreas-Meyer-Straße 55 / 22113 - Hamburg / Billbrook / D",
    "locationCountry": "D",
    "locationPost": "22113",
    "lon": 10.08558,
    "lat": 53.513477
  },
  {
    "groupId": 1,
    "id": 3970,
    "name": "KR 299-JTR",
    "code": "222306",
    "vehicleCode": "",
    "status": 0,
    "note": "BENALU KIPER 64M3, 01.03.2022",
    "time": "20.02.2024 17:17",
    "location": "ŠENÈUR - JURÈIÈ & Co (100 m S.E. from ) ",
    "locationCountry": "SLO",
    "locationPost": "",
    "lon": 14.411287,
    "lat": 46.234249
  },
  {
    "groupId": 1,
    "id": 3976,
    "name": "KR 300-JTR",
    "code": "222312",
    "vehicleCode": "KR JTR-100",
    "status": 1,
    "note": "BENALU KIPER 64M3 \r\n01.03.2022",
    "time": "27.02.2024 03:05",
    "location": "93102 - Pfatter / Seppenhausen / D",
    "locationCountry": "D",
    "locationPost": "93102",
    "lon": 12.346867,
    "lat": 48.962917
  },
  {
    "groupId": 1,
    "id": 387,
    "name": "KR CK-839",
    "code": "360",
    "vehicleCode": "",
    "status": 0,
    "note": "KRONE TANDEM PRIKOLICA 2015",
    "time": "",
    "location": "",
    "locationCountry": "",
    "locationPost": "",
    "lon": 0.0,
    "lat": 0.0
  },
  {
    "groupId": 1,
    "id": 294,
    "name": "KR HR-166",
    "code": "269",
    "vehicleCode": "",
    "status": 0,
    "note": "KIPER BENALU OPTILINER 106 / 2016 (74 CBM)",
    "time": "04.01.2024 16:16",
    "location": "ŠENÈUR - JURÈIÈ & Co (100 m S. from ) ",
    "locationCountry": "SLO",
    "locationPost": "",
    "lon": 14.410772,
    "lat": 46.233948
  },
  {
    "groupId": 1,
    "id": 308,
    "name": "KR HR-183",
    "code": "284",
    "vehicleCode": "",
    "status": 0,
    "note": "KRONE 2016 Tautleiner XL + gume certifikat",
    "time": "16.03.2022 09:39",
    "location": "ŠENÈUR - JURÈIÈ & Co (100 m E. from ) ",
    "locationCountry": "SLO",
    "locationPost": "",
    "lon": 14.411845,
    "lat": 46.234333
  },
  {
    "groupId": 1,
    "id": 3958,
    "name": "KR HR-631",
    "code": "222294",
    "vehicleCode": "",
    "status": 0,
    "note": "BENALU 74M3, \r\n27.05.2016",
    "time": "15.12.2023 09:38",
    "location": "ŠENÈUR - JURÈIÈ & Co (100 m S. from ) ",
    "locationCountry": "SLO",
    "locationPost": "",
    "lon": 14.410644,
    "lat": 46.233818
  },
  {
    "groupId": 1,
    "id": 4011,
    "name": "KR TEST",
    "code": "9898",
    "vehicleCode": "",
    "status": 0,
    "note": "",
    "time": "",
    "location": "",
    "locationCountry": "",
    "locationPost": "",
    "lon": 0.0,
    "lat": 0.0
  },
  {
    "groupId": 1,
    "id": 373,
    "name": "LJ 155-BE",
    "code": "346",
    "vehicleCode": "",
    "status": 0,
    "note": "KRONE DUBLDECKER FRIGO 2016",
    "time": "29.01.2024 15:27",
    "location": "ŠENÈUR - JURÈIÈ & Co (100 m W. from ) ",
    "locationCountry": "SLO",
    "locationPost": "",
    "lon": 14.409871,
    "lat": 46.234291
  },
  {
    "groupId": 1,
    "id": 3965,
    "name": "PRIKOLICA TEST",
    "code": "222301",
    "vehicleCode": "",
    "status": 0,
    "note": "",
    "time": "28.10.2023 13:25",
    "location": "ŠENÈUR - JURÈIÈ & Co",
    "locationCountry": "SLO",
    "locationPost": "",
    "lon": 14.410815,
    "lat": 46.234333
  },
  {
    "groupId": 1,
    "id": 4003,
    "name": "TRAILER ID 1-Wire 6800001DB52A9501",
    "code": "855614",
    "vehicleCode": "",
    "status": 0,
    "note": "",
    "time": "05.02.2023 03:01",
    "location": "ŠENÈUR - JURÈIÈ & Co",
    "locationCountry": "SLO",
    "locationPost": "",
    "lon": 14.410772,
    "lat": 46.234421
  },
  {
    "groupId": 1,
    "id": 4009,
    "name": "TRAILER ID 1-Wire 8D00001D1BEFD101",
    "code": "855618",
    "vehicleCode": "",
    "status": 0,
    "note": "",
    "time": "25.02.2023 14:53",
    "location": "ŠENÈUR - JURÈIÈ & Co (100 m N.W. from ) ",
    "locationCountry": "SLO",
    "locationPost": "",
    "lon": 14.410172,
    "lat": 46.234978
  },
  {
    "groupId": 1,
    "id": 4008,
    "name": "TRAILER ID 1-Wire EB00001D1B129201",
    "code": "855617",
    "vehicleCode": "",
    "status": 0,
    "note": "",
    "time": "25.02.2023 14:52",
    "location": "ŠENÈUR - JURÈIÈ & Co (100 m N.W. from ) ",
    "locationCountry": "SLO",
    "locationPost": "",
    "lon": 14.410172,
    "lat": 46.234978
  },
  {
    "groupId": 1,
    "id": 4044,
    "name": "TRAILER ID 1-Wire FFFFFEFEBEFDD7F1",
    "code": "2501244",
    "vehicleCode": "",
    "status": 0,
    "note": "",
    "time": "19.02.2024 22:40",
    "location": "Dieselstraße  / 74211 - Leingarten / D",
    "locationCountry": "D",
    "locationPost": "74211",
    "lon": 9.12867,
    "lat": 49.146912
  },
  {
    "groupId": 1,
    "id": 4032,
    "name": "TRAILER ID 1-Wire FFFFFEFEFEFBFDFD",
    "code": "855638",
    "vehicleCode": "",
    "status": 0,
    "note": "",
    "time": "06.11.2023 00:25",
    "location": "ŠENÈUR - JURÈIÈ & Co (100 m N.W. from ) ",
    "locationCountry": "SLO",
    "locationPost": "",
    "lon": 14.410086,
    "lat": 46.234978
  },
  {
    "groupId": 1,
    "id": 79,
    "name": "V1-19 KR",
    "code": "56",
    "vehicleCode": "",
    "status": 0,
    "note": "FLUID - LETNIK 2007 - CISTERNA",
    "time": "26.02.2024 20:03",
    "location": "ŠENÈUR - JURÈIÈ & Co",
    "locationCountry": "SLO",
    "locationPost": "",
    "lon": 14.410172,
    "lat": 46.234463
  }
]